%  GPST              x-ecef(m)      y-ecef(m)      z-ecef(m)   Q  ns   sdx(m)   sdy(m)   sdz(m)  sdxy(m)  sdyz(m)  sdzx(m) age(s)  ratio
2121 172800.000  -2148743.5625   4426639.6868   4044655.4979   6   7   1.6845   2.5005   3.0400  -1.7106   2.1013  -1.4368   0.00    0.0
2121 172830.000  -2148744.1635   4426641.2888   4044657.8602   6   7   1.1330   1.6508   1.9343  -1.1131   1.3272  -0.9024   0.00    0.0
2121 172860.000  -2148744.4784   4426642.1149   4044658.0921   6   7   0.9135   1.3255   1.5344  -0.8893   1.0566  -0.7176   0.00    0.0
2121 172890.000  -2148744.5377   4426642.1993   4044658.1542   6   7   0.7883   1.1418   1.3130  -0.7643   0.9083  -0.6165   0.00    0.0
2121 172920.000  -2148744.6494   4426642.4819   4044658.2406   6   7   0.7053   1.0208   1.1685  -0.6825   0.8119  -0.5509   0.00    0.0
2121 172950.000  -2148744.7682   4426642.4982   4044658.3930   6   7   0.6455   0.9339   1.0650  -0.6240   0.7433  -0.5041   0.00    0.0
2121 172980.000  -2148744.7767   4426642.5623   4044658.3046   6   7   0.5901   0.8514   0.9590  -0.5657   0.6734  -0.4563   0.00    0.0
2121 173010.000  -2148744.9757   4426642.8795   4044658.5878   6   7   0.5372   0.7731   0.8496  -0.5078   0.6052  -0.4097   0.00    0.0
2121 173040.000  -2148745.0893   4426643.1592   4044658.6109   6   7   0.4862   0.7001   0.7381  -0.4511   0.5422  -0.3664   0.00    0.0
2121 173070.000  -2148745.1945   4426643.2133   4044658.4023   6   7   0.4355   0.6296   0.6221  -0.3936   0.4812  -0.3239   0.00    0.0
2121 173100.000  -2148745.1323   4426642.8728   4044657.9364   6   7   0.3839   0.5523   0.5049  -0.3298   0.4091  -0.2757   0.00    0.0
2121 173130.000  -2148745.1485   4426642.8844   4044657.9298   6   7   0.3691   0.5323   0.4883  -0.3187   0.3960  -0.2672   0.00    0.0
2121 173160.000  -2148745.1502   4426642.8354   4044657.8807   6   7   0.3581   0.5176   0.4777  -0.3119   0.3873  -0.2618   0.00    0.0
2121 173190.000  -2148745.1436   4426642.8942   4044657.9129   6   7   0.3488   0.5050   0.4690  -0.3062   0.3800  -0.2573   0.00    0.0
2121 173220.000  -2148745.1395   4426642.9315   4044657.9015   6   7   0.3405   0.4939   0.4613  -0.3012   0.3736  -0.2533   0.00    0.0
2121 173250.000  -2148745.1218   4426642.8851   4044657.8790   6   7   0.3332   0.4839   0.4544  -0.2966   0.3679  -0.2497   0.00    0.0
2121 173280.000  -2148745.1092   4426642.8679   4044657.8607   6   7   0.3249   0.4729   0.4453  -0.2906   0.3610  -0.2450   0.00    0.0
2121 173310.000  -2148745.1575   4426642.9806   4044657.9338   6   7   0.3153   0.4603   0.4330  -0.2825   0.3527  -0.2390   0.00    0.0
2121 173340.000  -2148745.2369   4426643.0281   4044658.0617   6   7   0.3034   0.4458   0.4154  -0.2715   0.3424  -0.2312   0.00    0.0
2121 173370.000  -2148745.2553   4426642.9520   4044658.0597   6   7   0.2872   0.4269   0.3879  -0.2551   0.3275  -0.2195   0.00    0.0
2121 173400.000  -2148745.0969   4426642.4808   4044657.4201   6   7   0.2622   0.3959   0.3418  -0.2264   0.2994  -0.1995   0.00    0.0
2121 173430.000  -2148745.0840   4426642.4096   4044657.3530   6   7   0.2561   0.3886   0.3354  -0.2222   0.2949  -0.1964   0.00    0.0
2121 173460.000  -2148745.0576   4426642.3671   4044657.3281   6   7   0.2520   0.3835   0.3318  -0.2201   0.2921  -0.1947   0.00    0.0
2121 173490.000  -2148745.0534   4426642.3160   4044657.3117   6   7   0.2486   0.3790   0.3289  -0.2185   0.2899  -0.1934   0.00    0.0
2121 173520.000  -2148745.0476   4426642.3071   4044657.3043   6   7   0.2455   0.3750   0.3264  -0.2172   0.2878  -0.1922   0.00    0.0
2121 173550.000  -2148745.0556   4426642.2696   4044657.2986   6   7   0.2426   0.3713   0.3241  -0.2160   0.2860  -0.1911   0.00    0.0
2121 173580.000  -2148745.0745   4426642.2834   4044657.3257   6   7   0.2394   0.3672   0.3211  -0.2143   0.2838  -0.1897   0.00    0.0
2121 173610.000  -2148745.0774   4426642.3041   4044657.3304   6   7   0.2354   0.3627   0.3171  -0.2117   0.2812  -0.1877   0.00    0.0
2121 173640.000  -2148745.0895   4426642.3065   4044657.3250   6   7   0.2302   0.3573   0.3109  -0.2078   0.2778  -0.1848   0.00    0.0
2121 173670.000  -2148745.0935   4426642.2635   4044657.2522   6   7   0.2220   0.3498   0.3000  -0.2008   0.2724  -0.1796   0.00    0.0
2121 173700.000  -2148745.0358   4426642.0406   4044656.9376   6   7   0.2061   0.3360   0.2770  -0.1855   0.2602  -0.1690   0.00    0.0
2121 173730.000  -2148745.0265   4426642.0175   4044656.8965   6   7   0.2023   0.3322   0.2734  -0.1831   0.2579  -0.1672   0.00    0.0
2121 173760.000  -2148745.0250   4426642.0200   4044656.8897   6   7   0.2000   0.3295   0.2715  -0.1820   0.2564  -0.1662   0.00    0.0
2121 173790.000  -2148745.0093   4426641.9915   4044656.8615   6   7   0.1981   0.3272   0.2699  -0.1812   0.2552  -0.1655   0.00    0.0
2121 173820.000  -2148745.0206   4426641.9772   4044656.8569   6   7   0.1965   0.3250   0.2685  -0.1806   0.2541  -0.1648   0.00    0.0
2121 173850.000  -2148745.0148   4426641.9568   4044656.8498   6   7   0.1949   0.3229   0.2672  -0.1801   0.2531  -0.1642   0.00    0.0
2121 173880.000  -2148745.0363   4426641.9565   4044656.8835   6   7   0.1931   0.3207   0.2656  -0.1792   0.2519  -0.1635   0.00    0.0
2121 173910.000  -2148745.0332   4426641.9670   4044656.8924   6   7   0.1909   0.3183   0.2634  -0.1780   0.2505  -0.1623   0.00    0.0
2121 173940.000  -2148745.0635   4426641.9711   4044656.9029   6   7   0.1877   0.3154   0.2602  -0.1758   0.2486  -0.1605   0.00    0.0
2121 173970.000  -2148745.0802   4426641.9596   4044656.9000   6   7   0.1822   0.3112   0.2539  -0.1714   0.2453  -0.1569   0.00    0.0
2121 174000.000  -2148745.0469   4426641.8543   4044656.7220   6   7   0.1685   0.3020   0.2378  -0.1591   0.2365  -0.1474   0.00    0.0
2121 174030.000  -2148745.0371   4426641.8355   4044656.6726   6   7   0.1659   0.2994   0.2351  -0.1572   0.2347  -0.1458   0.00    0.0
2121 174060.000  -2148745.0308   4426641.8098   4044656.6561   6   7   0.1643   0.2974   0.2336  -0.1564   0.2335  -0.1450   0.00    0.0
2121 174090.000  -2148745.0231   4426641.7928   4044656.6459   6   7   0.1631   0.2957   0.2324  -0.1558   0.2324  -0.1443   0.00    0.0
2121 174120.000  -2148745.0179   4426641.7776   4044656.6363   6   7   0.1620   0.2941   0.2313  -0.1553   0.2315  -0.1438   0.00    0.0
2121 174150.000  -2148745.0256   4426641.7895   4044656.6455   6   7   0.1610   0.2927   0.2303  -0.1549   0.2306  -0.1433   0.00    0.0
2121 174180.000  -2148745.0194   4426641.7882   4044656.6424   6   7   0.1598   0.2910   0.2291  -0.1542   0.2296  -0.1426   0.00    0.0
2121 174210.000  -2148745.0308   4426641.8037   4044656.6411   6   7   0.1583   0.2892   0.2275  -0.1533   0.2284  -0.1416   0.00    0.0
2121 174240.000  -2148745.0557   4426641.8287   4044656.6725   6   7   0.1561   0.2870   0.2251  -0.1516   0.2267  -0.1401   0.00    0.0
2121 174270.000  -2148745.0535   4426641.8139   4044656.6906   6   7   0.1520   0.2834   0.2203  -0.1479   0.2235  -0.1367   0.00    0.0
2121 174300.000  -2148745.0301   4426641.7814   4044656.6224   6   7   0.1404   0.2738   0.2057  -0.1359   0.2134  -0.1265   0.00    0.0
2121 174330.000  -2148745.0460   4426641.7859   4044656.6218   6   7   0.1381   0.2712   0.2032  -0.1339   0.2113  -0.1247   0.00    0.0
2121 174360.000  -2148745.0384   4426641.7835   4044656.6168   6   7   0.1369   0.2695   0.2017  -0.1330   0.2100  -0.1238   0.00    0.0
2121 174390.000  -2148745.0326   4426641.7770   4044656.6118   6   7   0.1360   0.2680   0.2006  -0.1324   0.2090  -0.1232   0.00    0.0
2121 174420.000  -2148745.0332   4426641.7675   4044656.6158   6   7   0.1351   0.2666   0.1996  -0.1318   0.2080  -0.1226   0.00    0.0
2121 174450.000  -2148745.0267   4426641.7556   4044656.6136   6   7   0.1344   0.2653   0.1987  -0.1314   0.2071  -0.1221   0.00    0.0
2121 174480.000  -2148745.0240   4426641.7544   4044656.6140   6   7   0.1335   0.2638   0.1976  -0.1307   0.2061  -0.1214   0.00    0.0
2121 174510.000  -2148745.0202   4426641.7496   4044656.6069   6   7   0.1323   0.2621   0.1961  -0.1298   0.2048  -0.1205   0.00    0.0
2121 174540.000  -2148745.0268   4426641.7492   4044656.6000   6   7   0.1306   0.2599   0.1940  -0.1282   0.2029  -0.1189   0.00    0.0
2121 174570.000  -2148745.0372   4426641.7645   4044656.6035   6   7   0.1273   0.2561   0.1895  -0.1245   0.1993  -0.1156   0.00    0.0
2121 174600.000  -2148744.9985   4426641.7140   4044656.5152   6   7   0.1171   0.2444   0.1750  -0.1115   0.1871  -0.1046   0.00    0.0
2121 174630.000  -2148744.9957   4426641.7118   4044656.5090   6   7   0.1151   0.2417   0.1725  -0.1093   0.1847  -0.1027   0.00    0.0
2121 174660.000  -2148744.9891   4426641.6986   4044656.4974   6   7   0.1141   0.2400   0.1711  -0.1084   0.1834  -0.1018   0.00    0.0
2121 174690.000  -2148744.9800   4426641.6940   4044656.4893   6   7   0.1134   0.2386   0.1701  -0.1077   0.1823  -0.1012   0.00    0.0
2121 174720.000  -2148744.9728   4426641.6911   4044656.4839   6   7   0.1127   0.2373   0.1691  -0.1072   0.1814  -0.1006   0.00    0.0
2121 174750.000  -2148744.9667   4426641.6788   4044656.4694   6   7   0.1121   0.2361   0.1683  -0.1067   0.1805  -0.1001   0.00    0.0
2121 174780.000  -2148744.9606   4426641.6739   4044656.4616   6   7   0.1114   0.2347   0.1672  -0.1061   0.1795  -0.0995   0.00    0.0
2121 174810.000  -2148744.9572   4426641.6706   4044656.4567   6   7   0.1105   0.2331   0.1659  -0.1051   0.1782  -0.0986   0.00    0.0
2121 174840.000  -2148744.9654   4426641.6879   4044656.4784   6   7   0.1091   0.2310   0.1640  -0.1036   0.1763  -0.0972   0.00    0.0
2121 174870.000  -2148744.9810   4426641.6975   4044656.4921   6   7   0.1063   0.2268   0.1598  -0.0998   0.1724  -0.0940   0.00    0.0
2121 174900.000  -2148744.9680   4426641.6744   4044656.4335   6   7   0.0974   0.2139   0.1462  -0.0862   0.1595  -0.0832   0.00    0.0
2121 174930.000  -2148744.9620   4426641.6667   4044656.4219   6   7   0.0958   0.2112   0.1438  -0.0840   0.1570  -0.0814   0.00    0.0
2121 174960.000  -2148744.9535   4426641.6623   4044656.4116   6   7   0.0950   0.2096   0.1426  -0.0831   0.1558  -0.0806   0.00    0.0
2121 174990.000  -2148744.9528   4426641.6646   4044656.4103   6   7   0.0944   0.2084   0.1417  -0.0825   0.1548  -0.0800   0.00    0.0
2121 175020.000  -2148744.9449   4426641.6570   4044656.3988   6   7   0.0939   0.2073   0.1408  -0.0820   0.1539  -0.0795   0.00    0.0
2121 175050.000  -2148744.9408   4426641.6609   4044656.3949   6   7   0.0934   0.2062   0.1401  -0.0816   0.1531  -0.0790   0.00    0.0
2121 175080.000  -2148744.9327   4426641.6530   4044656.3885   6   7   0.0928   0.2050   0.1392  -0.0810   0.1522  -0.0785   0.00    0.0
2121 175110.000  -2148744.9350   4426641.6540   4044656.3873   6   7   0.0921   0.2036   0.1381  -0.0802   0.1510  -0.0777   0.00    0.0
2121 175140.000  -2148744.9356   4426641.6509   4044656.3950   6   7   0.0911   0.2016   0.1363  -0.0787   0.1493  -0.0765   0.00    0.0
2121 175170.000  -2148744.9443   4426641.6683   4044656.4118   6   7   0.0890   0.1976   0.1327  -0.0752   0.1456  -0.0736   0.00    0.0
2121 175200.000  -2148744.9255   4426641.6432   4044656.3605   6   7   0.0821   0.1855   0.1207  -0.0625   0.1336  -0.0643   0.00    0.0
2121 175230.000  -2148744.9212   4426641.6346   4044656.3472   6   7   0.0809   0.1830   0.1186  -0.0603   0.1314  -0.0627   0.00    0.0
2121 175260.000  -2148744.9138   4426641.6273   4044656.3415   6   7   0.0803   0.1816   0.1176  -0.0595   0.1303  -0.0620   0.00    0.0
2121 175290.000  -2148744.9106   4426641.6178   4044656.3362   6   7   0.0798   0.1806   0.1168  -0.0590   0.1294  -0.0615   0.00    0.0
2121 175320.000  -2148744.9020   4426641.6087   4044656.3357   6   7   0.0794   0.1796   0.1161  -0.0586   0.1287  -0.0611   0.00    0.0
2121 175350.000  -2148744.8989   4426641.5992   4044656.3310   6   7   0.0790   0.1788   0.1155  -0.0582   0.1281  -0.0607   0.00    0.0
2121 175380.000  -2148744.8946   4426641.5990   4044656.3255   6   7   0.0786   0.1778   0.1148  -0.0577   0.1273  -0.0603   0.00    0.0
2121 175410.000  -2148744.8947   4426641.6086   4044656.3235   6   7   0.0781   0.1766   0.1139  -0.0570   0.1263  -0.0597   0.00    0.0
2121 175440.000  -2148744.8942   4426641.6152   4044656.3252   6   7   0.0773   0.1748   0.1125  -0.0557   0.1248  -0.0587   0.00    0.0
2121 175470.000  -2148744.9047   4426641.6240   4044656.3302   6   7   0.0757   0.1714   0.1095  -0.0525   0.1216  -0.0564   0.00    0.0
2121 175500.000  -2148744.8969   4426641.5855   4044656.2828   6   6   0.0717   0.1676   0.1043  -0.0469   0.1177  -0.0523   0.00    0.0
2121 175530.000  -2148744.8840   4426641.5725   4044656.2656   6   6   0.0709   0.1666   0.1033  -0.0460   0.1169  -0.0517   0.00    0.0
2121 175560.000  -2148744.8806   4426641.5771   4044656.2666   6   6   0.0705   0.1659   0.1027  -0.0457   0.1164  -0.0513   0.00    0.0
2121 175590.000  -2148744.8781   4426641.5754   4044656.2620   6   6   0.0702   0.1653   0.1023  -0.0455   0.1159  -0.0511   0.00    0.0
2121 175620.000  -2148744.8740   4426641.5837   4044656.2630   6   6   0.0699   0.1648   0.1019  -0.0454   0.1155  -0.0509   0.00    0.0
2121 175650.000  -2148744.8703   4426641.5790   4044656.2568   6   6   0.0696   0.1643   0.1015  -0.0452   0.1152  -0.0507   0.00    0.0
2121 175680.000  -2148744.8750   4426641.5813   4044656.2566   6   6   0.0693   0.1637   0.1011  -0.0451   0.1148  -0.0505   0.00    0.0
2121 175710.000  -2148744.8753   4426641.5816   4044656.2524   6   6   0.0690   0.1631   0.1006  -0.0448   0.1143  -0.0502   0.00    0.0
2121 175740.000  -2148744.8757   4426641.5852   4044656.2521   6   6   0.0685   0.1624   0.1000  -0.0443   0.1138  -0.0498   0.00    0.0
2121 175770.000  -2148744.8856   4426641.5972   4044656.2595   6   6   0.0676   0.1613   0.0988  -0.0432   0.1128  -0.0489   0.00    0.0
2121 175800.000  -2148744.8731   4426641.5642   4044656.2213   6   6   0.0643   0.1581   0.0945  -0.0384   0.1095  -0.0456   0.00    0.0
2121 175830.000  -2148744.8721   4426641.5651   4044656.2146   6   6   0.0637   0.1573   0.0937  -0.0377   0.1088  -0.0451   0.00    0.0
2121 175860.000  -2148744.8688   4426641.5573   4044656.2081   6   6   0.0634   0.1567   0.0932  -0.0375   0.1084  -0.0448   0.00    0.0
2121 175890.000  -2148744.8706   4426641.5531   4044656.2023   6   6   0.0631   0.1562   0.0928  -0.0373   0.1080  -0.0446   0.00    0.0
2121 175920.000  -2148744.8684   4426641.5469   4044656.1965   6   6   0.0629   0.1557   0.0925  -0.0372   0.1077  -0.0445   0.00    0.0
2121 175950.000  -2148744.8714   4426641.5526   4044656.1989   6   6   0.0627   0.1552   0.0922  -0.0371   0.1073  -0.0443   0.00    0.0
2121 175980.000  -2148744.8695   4426641.5504   4044656.1933   6   6   0.0625   0.1548   0.0919  -0.0370   0.1070  -0.0441   0.00    0.0
2121 176010.000  -2148744.8671   4426641.5525   4044656.1928   6   6   0.0622   0.1542   0.0915  -0.0368   0.1066  -0.0439   0.00    0.0
2121 176040.000  -2148744.8730   4426641.5592   4044656.2014   6   6   0.0618   0.1536   0.0909  -0.0364   0.1061  -0.0436   0.00    0.0
2121 176070.000  -2148744.8817   4426641.5641   4044656.2068   6   6   0.0611   0.1526   0.0899  -0.0355   0.1053  -0.0429   0.00    0.0
2121 176100.000  -2148744.8669   4426641.5352   4044656.1762   6   6   0.0587   0.1497   0.0863  -0.0314   0.1023  -0.0403   0.00    0.0
2121 176130.000  -2148744.8569   4426641.5307   4044656.1670   6   6   0.0582   0.1489   0.0856  -0.0308   0.1017  -0.0399   0.00    0.0
2121 176160.000  -2148744.8537   4426641.5272   4044656.1630   6   6   0.0579   0.1484   0.0852  -0.0306   0.1013  -0.0396   0.00    0.0
2121 176190.000  -2148744.8538   4426641.5230   4044656.1596   6   6   0.0577   0.1480   0.0849  -0.0304   0.1009  -0.0395   0.00    0.0
2121 176220.000  -2148744.8514   4426641.5210   4044656.1570   6   6   0.0575   0.1475   0.0846  -0.0303   0.1006  -0.0393   0.00    0.0
2121 176250.000  -2148744.8469   4426641.5162   4044656.1507   6   6   0.0573   0.1471   0.0843  -0.0303   0.1003  -0.0392   0.00    0.0
2121 176280.000  -2148744.8419   4426641.5137   4044656.1470   6   6   0.0572   0.1467   0.0840  -0.0301   0.1000  -0.0391   0.00    0.0
2121 176310.000  -2148744.8406   4426641.5157   4044656.1486   6   6   0.0569   0.1462   0.0836  -0.0300   0.0996  -0.0389   0.00    0.0
2121 176340.000  -2148744.8447   4426641.5188   4044656.1514   6   6   0.0566   0.1456   0.0831  -0.0296   0.0992  -0.0386   0.00    0.0
2121 176370.000  -2148744.8468   4426641.5190   4044656.1541   6   6   0.0561   0.1447   0.0823  -0.0288   0.0984  -0.0380   0.00    0.0
2121 176400.000  -2148744.8355   4426641.4933   4044656.1324   6   6   0.0542   0.1417   0.0789  -0.0247   0.0954  -0.0357   0.00    0.0
2121 176430.000  -2148744.8342   4426641.4929   4044656.1314   6   6   0.0538   0.1409   0.0783  -0.0241   0.0948  -0.0353   0.00    0.0
2121 176460.000  -2148744.8317   4426641.4940   4044656.1306   6   6   0.0536   0.1404   0.0779  -0.0239   0.0944  -0.0351   0.00    0.0
2121 176490.000  -2148744.8297   4426641.4932   4044656.1285   6   7   0.0534   0.1400   0.0776  -0.0237   0.0941  -0.0349   0.00    0.0
2121 176520.000  -2148744.8249   4426641.4906   4044656.1232   6   7   0.0532   0.1395   0.0773  -0.0236   0.0938  -0.0348   0.00    0.0
2121 176550.000  -2148744.8247   4426641.4831   4044656.1201   6   7   0.0531   0.1391   0.0770  -0.0235   0.0935  -0.0347   0.00    0.0
2121 176580.000  -2148744.8243   4426641.4821   4044656.1194   6   7   0.0529   0.1387   0.0768  -0.0234   0.0932  -0.0346   0.00    0.0
2121 176610.000  -2148744.8262   4426641.4797   4044656.1171   6   7   0.0527   0.1382   0.0764  -0.0232   0.0928  -0.0344   0.00    0.0
2121 176640.000  -2148744.8295   4426641.4814   4044656.1183   6   7   0.0525   0.1376   0.0760  -0.0228   0.0923  -0.0341   0.00    0.0
2121 176670.000  -2148744.8343   4426641.4816   4044656.1190   6   7   0.0520   0.1365   0.0751  -0.0219   0.0914  -0.0336   0.00    0.0
2121 176700.000  -2148744.8253   4426641.4597   4044656.0990   6   7   0.0504   0.1330   0.0718  -0.0163   0.0881  -0.0312   0.00    0.0
2121 176730.000  -2148744.8199   4426641.4560   4044656.0938   6   7   0.0501   0.1321   0.0711  -0.0154   0.0874  -0.0308   0.00    0.0
2121 176760.000  -2148744.8183   4426641.4584   4044656.0941   6   7   0.0499   0.1316   0.0708  -0.0151   0.0870  -0.0306   0.00    0.0
2121 176790.000  -2148744.8175   4426641.4556   4044656.0925   6   7   0.0497   0.1312   0.0705  -0.0149   0.0867  -0.0305   0.00    0.0
2121 176820.000  -2148744.8117   4426641.4445   4044656.0833   6   7   0.0496   0.1308   0.0702  -0.0147   0.0864  -0.0304   0.00    0.0
2121 176850.000  -2148744.8083   4426641.4462   4044656.0811   6   7   0.0494   0.1304   0.0700  -0.0146   0.0861  -0.0302   0.00    0.0
2121 176880.000  -2148744.8042   4426641.4455   4044656.0778   6   7   0.0493   0.1300   0.0697  -0.0144   0.0858  -0.0301   0.00    0.0
2121 176910.000  -2148744.8025   4426641.4419   4044656.0747   6   7   0.0491   0.1295   0.0694  -0.0140   0.0854  -0.0299   0.00    0.0
2121 176940.000  -2148744.8024   4426641.4472   4044656.0770   6   7   0.0489   0.1288   0.0689  -0.0134   0.0849  -0.0296   0.00    0.0
2121 176970.000  -2148744.8032   4426641.4509   4044656.0796   6   7   0.0485   0.1276   0.0680  -0.0114   0.0839  -0.0290   0.00    0.0
2121 177000.000  -2148744.8008   4426641.4499   4044656.0747   6   7   0.0471   0.1236   0.0646   0.0091   0.0802  -0.0264   0.00    0.0
2121 177030.000  -2148744.8010   4426641.4489   4044656.0717   6   7   0.0468   0.1227   0.0639   0.0106   0.0795  -0.0260   0.00    0.0
2121 177060.000  -2148744.7984   4426641.4436   4044656.0658   6   7   0.0466   0.1221   0.0636   0.0111   0.0791  -0.0258   0.00    0.0
2121 177090.000  -2148744.7958   4426641.4400   4044656.0620   6   7   0.0465   0.1217   0.0633   0.0114   0.0788  -0.0256   0.00    0.0
2121 177120.000  -2148744.7936   4426641.4360   4044656.0580   6   7   0.0464   0.1214   0.0631   0.0116   0.0785  -0.0255   0.00    0.0
2121 177150.000  -2148744.7909   4426641.4324   4044656.0540   6   7   0.0462   0.1210   0.0629   0.0118   0.0782  -0.0254   0.00    0.0
2121 177180.000  -2148744.7902   4426641.4297   4044656.0521   6   7   0.0461   0.1206   0.0626   0.0120   0.0780  -0.0252   0.00    0.0
2121 177210.000  -2148744.7881   4426641.4312   4044656.0527   6   7   0.0460   0.1201   0.0623   0.0124   0.0776  -0.0250   0.00    0.0
2121 177240.000  -2148744.7875   4426641.4283   4044656.0506   6   7   0.0458   0.1195   0.0619   0.0131   0.0771  -0.0247   0.00    0.0
2121 177270.000  -2148744.7879   4426641.4261   4044656.0495   6   7   0.0454   0.1182   0.0610   0.0148   0.0760  -0.0240   0.00    0.0
2121 177300.000  -2148744.7889   4426641.4291   4044656.0485   6   7   0.0442   0.1139   0.0576   0.0205   0.0722  -0.0211   0.00    0.0
2121 177330.000  -2148744.7870   4426641.4333   4044656.0505   6   7   0.0439   0.1130   0.0570   0.0212   0.0714  -0.0206   0.00    0.0
2121 177360.000  -2148744.7858   4426641.4344   4044656.0510   6   6   0.0438   0.1127   0.0568   0.0213   0.0712  -0.0205   0.00    0.0
2121 177390.000  -2148744.7853   4426641.4361   4044656.0509   6   6   0.0436   0.1125   0.0566   0.0214   0.0710  -0.0203   0.00    0.0
2121 177420.000  -2148744.7855   4426641.4391   4044656.0521   6   6   0.0435   0.1122   0.0565   0.0215   0.0709  -0.0202   0.00    0.0
2121 177450.000  -2148744.7839   4426641.4402   4044656.0512   6   6   0.0434   0.1120   0.0563   0.0215   0.0707  -0.0201   0.00    0.0
2121 177480.000  -2148744.7839   4426641.4433   4044656.0536   6   6   0.0433   0.1118   0.0562   0.0216   0.0706  -0.0200   0.00    0.0
2121 177510.000  -2148744.7846   4426641.4494   4044656.0563   6   6   0.0432   0.1115   0.0560   0.0217   0.0704  -0.0199   0.00    0.0
2121 177540.000  -2148744.7875   4426641.4540   4044656.0598   6   6   0.0430   0.1112   0.0558   0.0219   0.0702  -0.0197   0.00    0.0
2121 177570.000  -2148744.7920   4426641.4591   4044656.0645   6   6   0.0428   0.1108   0.0555   0.0224   0.0699  -0.0192   0.00    0.0
2121 177600.000  -2148744.7912   4426641.4489   4044656.0576   6   6   0.0418   0.1095   0.0543   0.0246   0.0688  -0.0174   0.00    0.0
2121 177630.000  -2148744.7901   4426641.4524   4044656.0578   6   6   0.0416   0.1091   0.0540   0.0249   0.0686  -0.0171   0.00    0.0
2121 177660.000  -2148744.7884   4426641.4544   4044656.0558   6   6   0.0415   0.1089   0.0539   0.0250   0.0684  -0.0169   0.00    0.0
2121 177690.000  -2148744.7876   4426641.4577   4044656.0566   6   6   0.0414   0.1086   0.0538   0.0250   0.0683  -0.0168   0.00    0.0
2121 177720.000  -2148744.7872   4426641.4599   4044656.0546   6   6   0.0413   0.1084   0.0536   0.0250   0.0681  -0.0167   0.00    0.0
2121 177750.000  -2148744.7875   4426641.4606   4044656.0547   6   6   0.0412   0.1083   0.0535   0.0250   0.0680  -0.0166   0.00    0.0
2121 177780.000  -2148744.7855   4426641.4604   4044656.0533   6   6   0.0411   0.1081   0.0534   0.0250   0.0679  -0.0165   0.00    0.0
2121 177810.000  -2148744.7845   4426641.4614   4044656.0542   6   6   0.0410   0.1078   0.0533   0.0251   0.0677  -0.0164   0.00    0.0
2121 177840.000  -2148744.7854   4426641.4645   4044656.0552   6   6   0.0409   0.1076   0.0531   0.0252   0.0676  -0.0163   0.00    0.0
2121 177870.000  -2148744.7875   4426641.4699   4044656.0577   6   6   0.0406   0.1072   0.0529   0.0255   0.0673  -0.0159   0.00    0.0
2121 177900.000  -2148744.7872   4426641.4628   4044656.0513   6   6   0.0399   0.1062   0.0519   0.0270   0.0665  -0.0141   0.00    0.0
2121 177930.000  -2148744.7871   4426641.4634   4044656.0507   6   6   0.0397   0.1059   0.0517   0.0272   0.0663  -0.0138   0.00    0.0
2121 177960.000  -2148744.7859   4426641.4601   4044656.0502   6   6   0.0396   0.1057   0.0516   0.0272   0.0662  -0.0137   0.00    0.0
2121 177990.000  -2148744.7867   4426641.4660   4044656.0524   6   6   0.0395   0.1055   0.0515   0.0273   0.0661  -0.0136   0.00    0.0
2121 178020.000  -2148744.7866   4426641.4674   4044656.0522   6   6   0.0394   0.1053   0.0514   0.0273   0.0659  -0.0135   0.00    0.0
2121 178050.000  -2148744.7862   4426641.4629   4044656.0514   6   6   0.0393   0.1051   0.0513   0.0273   0.0658  -0.0135   0.00    0.0
2121 178080.000  -2148744.7856   4426641.4656   4044656.0519   6   6   0.0392   0.1050   0.0512   0.0273   0.0657  -0.0134   0.00    0.0
2121 178110.000  -2148744.7861   4426641.4667   4044656.0528   6   6   0.0391   0.1048   0.0511   0.0273   0.0656  -0.0133   0.00    0.0
2121 178140.000  -2148744.7882   4426641.4707   4044656.0553   6   6   0.0390   0.1045   0.0510   0.0273   0.0655  -0.0131   0.00    0.0
2121 178170.000  -2148744.7920   4426641.4722   4044656.0576   6   6   0.0388   0.1042   0.0507   0.0275   0.0653  -0.0128   0.00    0.0
2121 178200.000  -2148744.7898   4426641.4696   4044656.0523   6   6   0.0382   0.1035   0.0500   0.0286   0.0647  -0.0112   0.00    0.0
2121 178230.000  -2148744.7881   4426641.4678   4044656.0500   6   6   0.0380   0.1032   0.0499   0.0287   0.0646  -0.0109   0.00    0.0
2121 178260.000  -2148744.7866   4426641.4659   4044656.0479   6   6   0.0379   0.1030   0.0498   0.0287   0.0644  -0.0107   0.00    0.0
2121 178290.000  -2148744.7846   4426641.4659   4044656.0471   6   6   0.0378   0.1029   0.0497   0.0287   0.0643  -0.0107   0.00    0.0
2121 178320.000  -2148744.7840   4426641.4666   4044656.0464   6   6   0.0378   0.1027   0.0496   0.0287   0.0642  -0.0106   0.00    0.0
2121 178350.000  -2148744.7844   4426641.4654   4044656.0453   6   6   0.0377   0.1026   0.0495   0.0287   0.0642  -0.0106   0.00    0.0
2121 178380.000  -2148744.7830   4426641.4657   4044656.0439   6   6   0.0376   0.1024   0.0494   0.0287   0.0641  -0.0105   0.00    0.0
2121 178410.000  -2148744.7826   4426641.4676   4044656.0430   6   6   0.0375   0.1022   0.0494   0.0287   0.0640  -0.0104   0.00    0.0
2121 178440.000  -2148744.7827   4426641.4690   4044656.0433   6   6   0.0375   0.1021   0.0492   0.0287   0.0639  -0.0103   0.00    0.0
2121 178470.000  -2148744.7843   4426641.4699   4044656.0432   6   6   0.0373   0.1018   0.0491   0.0288   0.0637  -0.0100   0.00    0.0
2121 178500.000  -2148744.7836   4426641.4655   4044656.0384   6   6   0.0367   0.1012   0.0486   0.0295   0.0634  -0.0084   0.00    0.0
2121 178530.000  -2148744.7816   4426641.4632   4044656.0365   6   7   0.0366   0.1010   0.0485   0.0295   0.0632  -0.0082   0.00    0.0
2121 178560.000  -2148744.7812   4426641.4616   4044656.0344   6   7   0.0365   0.1009   0.0484   0.0295   0.0631  -0.0081   0.00    0.0
2121 178590.000  -2148744.7808   4426641.4610   4044656.0336   6   7   0.0364   0.1007   0.0483   0.0295   0.0631  -0.0080   0.00    0.0
2121 178620.000  -2148744.7793   4426641.4615   4044656.0323   6   7   0.0364   0.1006   0.0482   0.0295   0.0630  -0.0079   0.00    0.0
2121 178650.000  -2148744.7770   4426641.4640   4044656.0322   6   7   0.0363   0.1005   0.0482   0.0295   0.0629  -0.0079   0.00    0.0
2121 178680.000  -2148744.7762   4426641.4668   4044656.0332   6   7   0.0363   0.1003   0.0481   0.0295   0.0628  -0.0079   0.00    0.0
2121 178710.000  -2148744.7758   4426641.4648   4044656.0322   6   7   0.0362   0.1002   0.0480   0.0294   0.0627  -0.0078   0.00    0.0
2121 178740.000  -2148744.7754   4426641.4690   4044656.0346   6   8   0.0361   0.1000   0.0479   0.0294   0.0626  -0.0077   0.00    0.0
2121 178770.000  -2148744.7756   4426641.4661   4044656.0347   6   8   0.0360   0.0998   0.0478   0.0295   0.0625  -0.0074   0.00    0.0
2121 178800.000  -2148744.7759   4426641.4601   4044656.0311   6   8   0.0355   0.0993   0.0475   0.0299   0.0623  -0.0059   0.00    0.0
2121 178830.000  -2148744.7756   4426641.4611   4044656.0310   6   8   0.0354   0.0992   0.0474   0.0299   0.0622  -0.0057   0.00    0.0
2121 178860.000  -2148744.7739   4426641.4656   4044656.0312   6   8   0.0353   0.0990   0.0473   0.0299   0.0621  -0.0056   0.00    0.0
2121 178890.000  -2148744.7735   4426641.4665   4044656.0305   6   8   0.0352   0.0989   0.0472   0.0298   0.0620  -0.0056   0.00    0.0
2121 178920.000  -2148744.7714   4426641.4687   4044656.0312   6   8   0.0352   0.0987   0.0472   0.0298   0.0620  -0.0056   0.00    0.0
2121 178950.000  -2148744.7702   4426641.4681   4044656.0309   6   8   0.0351   0.0986   0.0471   0.0297   0.0619  -0.0055   0.00    0.0
2121 178980.000  -2148744.7692   4426641.4683   4044656.0302   6   8   0.0350   0.0985   0.0471   0.0297   0.0618  -0.0055   0.00    0.0
2121 179010.000  -2148744.7671   4426641.4696   4044656.0309   6   8   0.0350   0.0984   0.0470   0.0297   0.0618  -0.0055   0.00    0.0
2121 179040.000  -2148744.7667   4426641.4694   4044656.0305   6   8   0.0349   0.0982   0.0469   0.0296   0.0617  -0.0054   0.00    0.0
2121 179070.000  -2148744.7684   4426641.4704   4044656.0309   6   8   0.0348   0.0980   0.0468   0.0296   0.0616  -0.0051   0.00    0.0
2121 179100.000  -2148744.7711   4426641.4704   4044656.0306   6   8   0.0343   0.0976   0.0465   0.0299   0.0614  -0.0032   0.00    0.0
2121 179130.000  -2148744.7712   4426641.4721   4044656.0321   6   8   0.0342   0.0975   0.0465   0.0299   0.0613  -0.0029   0.00    0.0
2121 179160.000  -2148744.7707   4426641.4753   4044656.0333   6   9   0.0341   0.0973   0.0464   0.0298   0.0613  -0.0028   0.00    0.0
2121 179190.000  -2148744.7679   4426641.4726   4044656.0317   6   9   0.0341   0.0972   0.0463   0.0298   0.0612  -0.0028   0.00    0.0
2121 179220.000  -2148744.7670   4426641.4724   4044656.0311   6   9   0.0340   0.0971   0.0463   0.0297   0.0611  -0.0029   0.00    0.0
2121 179250.000  -2148744.7664   4426641.4715   4044656.0303   6   9   0.0340   0.0970   0.0462   0.0297   0.0611  -0.0029   0.00    0.0
2121 179280.000  -2148744.7654   4426641.4726   4044656.0299   6   9   0.0339   0.0968   0.0462   0.0296   0.0610  -0.0029   0.00    0.0
2121 179310.000  -2148744.7635   4426641.4733   4044656.0284   6   9   0.0338   0.0967   0.0461   0.0296   0.0610  -0.0029   0.00    0.0
2121 179340.000  -2148744.7622   4426641.4698   4044656.0258   6   9   0.0338   0.0966   0.0461   0.0295   0.0609  -0.0028   0.00    0.0
2121 179370.000  -2148744.7633   4426641.4676   4044656.0244   6   9   0.0336   0.0964   0.0460   0.0295   0.0608  -0.0024   0.00    0.0
2121 179400.000  -2148744.7660   4426641.4664   4044656.0243   6   9   0.0332   0.0960   0.0457   0.0296   0.0606   0.0025   0.00    0.0
2121 179430.000  -2148744.7643   4426641.4661   4044656.0236   6   9   0.0331   0.0958   0.0457   0.0295   0.0605   0.0028   0.00    0.0
2121 179460.000  -2148744.7632   4426641.4677   4044656.0240   6   9   0.0330   0.0957   0.0456   0.0295   0.0605   0.0028   0.00    0.0
2121 179490.000  -2148744.7626   4426641.4681   4044656.0242   6   9   0.0330   0.0956   0.0455   0.0294   0.0604   0.0027   0.00    0.0
2121 179520.000  -2148744.7605   4426641.4700   4044656.0238   6   9   0.0329   0.0954   0.0455   0.0294   0.0604   0.0027   0.00    0.0
2121 179550.000  -2148744.7600   4426641.4664   4044656.0217   6   9   0.0328   0.0953   0.0455   0.0293   0.0603   0.0026   0.00    0.0
2121 179580.000  -2148744.7590   4426641.4636   4044656.0196   6   9   0.0328   0.0952   0.0454   0.0292   0.0602   0.0025   0.00    0.0
2121 179610.000  -2148744.7588   4426641.4603   4044656.0180   6   9   0.0327   0.0951   0.0454   0.0292   0.0602   0.0024   0.00    0.0
2121 179640.000  -2148744.7589   4426641.4532   4044656.0169   6   9   0.0327   0.0949   0.0453   0.0291   0.0601   0.0024   0.00    0.0
2121 179670.000  -2148744.7592   4426641.4502   4044656.0152   6   9   0.0325   0.0947   0.0452   0.0290   0.0600   0.0027   0.00    0.0
2121 179700.000  -2148744.7627   4426641.4505   4044656.0151   6   9   0.0321   0.0941   0.0449   0.0289   0.0597   0.0040   0.00    0.0
2121 179730.000  -2148744.7632   4426641.4501   4044656.0144   6   9   0.0320   0.0940   0.0448   0.0289   0.0597   0.0041   0.00    0.0
2121 179760.000  -2148744.7626   4426641.4505   4044656.0133   6   9   0.0319   0.0938   0.0448   0.0288   0.0596   0.0041   0.00    0.0
2121 179790.000  -2148744.7627   4426641.4490   4044656.0125   6   9   0.0318   0.0937   0.0447   0.0287   0.0595   0.0040   0.00    0.0
2121 179820.000  -2148744.7633   4426641.4488   4044656.0128   6   9   0.0318   0.0936   0.0447   0.0287   0.0595   0.0039   0.00    0.0
2121 179850.000  -2148744.7632   4426641.4477   4044656.0120   6   9   0.0317   0.0935   0.0446   0.0286   0.0594   0.0038   0.00    0.0
2121 179880.000  -2148744.7634   4426641.4470   4044656.0118   6   9   0.0317   0.0934   0.0446   0.0285   0.0594   0.0038   0.00    0.0
2121 179910.000  -2148744.7628   4426641.4485   4044656.0117   6   9   0.0316   0.0932   0.0446   0.0285   0.0593   0.0037   0.00    0.0
2121 179940.000  -2148744.7622   4426641.4457   4044656.0100   6   9   0.0315   0.0930   0.0445   0.0284   0.0592   0.0036   0.00    0.0
2121 179970.000  -2148744.7628   4426641.4421   4044656.0093   6   9   0.0314   0.0928   0.0444   0.0283   0.0590   0.0037   0.00    0.0
2121 180000.000  -2148744.7636   4426641.4418   4044656.0082   6   9   0.0310   0.0919   0.0440   0.0280   0.0586   0.0044   0.00    0.0
2121 180030.000  -2148744.7631   4426641.4449   4044656.0080   6   9   0.0308   0.0916   0.0439   0.0279   0.0584   0.0044   0.00    0.0
2121 180060.000  -2148744.7621   4426641.4464   4044656.0079   6   9   0.0308   0.0915   0.0438   0.0278   0.0584   0.0043   0.00    0.0
2121 180090.000  -2148744.7614   4426641.4441   4044656.0067   6   9   0.0307   0.0913   0.0437   0.0277   0.0583   0.0042   0.00    0.0
2121 180120.000  -2148744.7616   4426641.4426   4044656.0068   6   9   0.0307   0.0912   0.0437   0.0277   0.0582   0.0041   0.00    0.0
2121 180150.000  -2148744.7624   4426641.4423   4044656.0063   6   9   0.0306   0.0911   0.0437   0.0276   0.0582   0.0040   0.00    0.0
2121 180180.000  -2148744.7617   4426641.4444   4044656.0065   6   9   0.0306   0.0910   0.0436   0.0275   0.0581   0.0039   0.00    0.0
2121 180210.000  -2148744.7606   4426641.4459   4044656.0066   6   9   0.0305   0.0908   0.0435   0.0274   0.0580   0.0038   0.00    0.0
2121 180240.000  -2148744.7595   4426641.4474   4044656.0062   6   9   0.0305   0.0906   0.0435   0.0274   0.0579   0.0037   0.00    0.0
2121 180270.000  -2148744.7608   4426641.4421   4044656.0043   6   9   0.0303   0.0902   0.0433   0.0272   0.0577   0.0037   0.00    0.0
2121 180300.000  -2148744.7623   4426641.4375   4044656.0016   6   9   0.0298   0.0888   0.0426   0.0268   0.0568   0.0041   0.00    0.0
2121 180330.000  -2148744.7614   4426641.4364   4044655.9998   6   9   0.0297   0.0884   0.0425   0.0267   0.0566   0.0041   0.00    0.0
2121 180360.000  -2148744.7608   4426641.4364   4044655.9995   6   9   0.0297   0.0883   0.0424   0.0266   0.0565   0.0040   0.00    0.0
2121 180390.000  -2148744.7602   4426641.4354   4044655.9992   6   9   0.0296   0.0881   0.0424   0.0265   0.0564   0.0039   0.00    0.0
2121 180420.000  -2148744.7598   4426641.4383   4044655.9998   6   9   0.0296   0.0880   0.0423   0.0264   0.0563   0.0037   0.00    0.0
2121 180450.000  -2148744.7589   4426641.4397   4044655.9997   6   9   0.0295   0.0878   0.0423   0.0263   0.0563   0.0036   0.00    0.0
2121 180480.000  -2148744.7588   4426641.4413   4044655.9997   6   9   0.0295   0.0877   0.0422   0.0263   0.0562   0.0035   0.00    0.0
2121 180510.000  -2148744.7579   4426641.4423   4044656.0001   6   9   0.0294   0.0875   0.0421   0.0262   0.0561   0.0033   0.00    0.0
2121 180540.000  -2148744.7583   4426641.4411   4044655.9995   6   8   0.0293   0.0873   0.0421   0.0261   0.0560   0.0031   0.00    0.0
2121 180570.000  -2148744.7582   4426641.4380   4044655.9985   6   8   0.0292   0.0869   0.0420   0.0258   0.0558   0.0028   0.00    0.0
2121 180600.000  -2148744.7599   4426641.4385   4044656.0005   6   8   0.0287   0.0855   0.0416   0.0251   0.0552   0.0016   0.00    0.0
2121 180630.000  -2148744.7594   4426641.4394   4044656.0003   6   8   0.0286   0.0852   0.0416   0.0250   0.0550   0.0010   0.00    0.0
2121 180660.000  -2148744.7597   4426641.4391   4044655.9997   6   8   0.0286   0.0850   0.0415   0.0249   0.0549  -0.0004   0.00    0.0
2121 180690.000  -2148744.7604   4426641.4373   4044655.9994   6   8   0.0285   0.0849   0.0415   0.0248   0.0548  -0.0011   0.00    0.0
2121 180720.000  -2148744.7609   4426641.4377   4044655.9991   6   8   0.0285   0.0848   0.0414   0.0247   0.0548  -0.0015   0.00    0.0
2121 180750.000  -2148744.7606   4426641.4374   4044655.9984   6   8   0.0285   0.0846   0.0414   0.0246   0.0547  -0.0018   0.00    0.0
2121 180780.000  -2148744.7605   4426641.4354   4044655.9973   6   8   0.0284   0.0845   0.0413   0.0245   0.0546  -0.0021   0.00    0.0
2121 180810.000  -2148744.7609   4426641.4340   4044655.9961   6   8   0.0284   0.0843   0.0413   0.0244   0.0545  -0.0024   0.00    0.0
2121 180840.000  -2148744.7611   4426641.4293   4044655.9948   6   8   0.0283   0.0840   0.0412   0.0243   0.0544  -0.0027   0.00    0.0
2121 180870.000  -2148744.7619   4426641.4275   4044655.9955   6   8   0.0282   0.0835   0.0411   0.0241   0.0541  -0.0030   0.00    0.0
2121 180900.000  -2148744.7644   4426641.4246   4044655.9963   6   8   0.0277   0.0817   0.0405   0.0233   0.0531  -0.0039   0.00    0.0
2121 180930.000  -2148744.7650   4426641.4239   4044655.9964   6   8   0.0276   0.0812   0.0403   0.0231   0.0529  -0.0041   0.00    0.0
2121 180960.000  -2148744.7644   4426641.4264   4044655.9971   6   8   0.0275   0.0810   0.0402   0.0230   0.0527  -0.0042   0.00    0.0
2121 180990.000  -2148744.7645   4426641.4290   4044655.9981   6   7   0.0275   0.0809   0.0402   0.0229   0.0527  -0.0044   0.00    0.0
2121 181020.000  -2148744.7634   4426641.4299   4044655.9983   6   7   0.0275   0.0808   0.0402   0.0228   0.0526  -0.0045   0.00    0.0
2121 181050.000  -2148744.7631   4426641.4305   4044655.9986   6   7   0.0274   0.0806   0.0401   0.0227   0.0526  -0.0046   0.00    0.0
2121 181080.000  -2148744.7625   4426641.4319   4044655.9986   6   7   0.0274   0.0805   0.0401   0.0226   0.0525  -0.0048   0.00    0.0
2121 181110.000  -2148744.7613   4426641.4316   4044655.9977   6   7   0.0273   0.0804   0.0401   0.0225   0.0524  -0.0049   0.00    0.0
2121 181140.000  -2148744.7603   4426641.4313   4044655.9982   6   7   0.0273   0.0802   0.0400   0.0223   0.0524  -0.0051   0.00    0.0
2121 181170.000  -2148744.7596   4426641.4306   4044655.9988   6   7   0.0271   0.0798   0.0399   0.0220   0.0522  -0.0055   0.00    0.0
2121 181200.000  -2148744.7618   4426641.4236   4044655.9975   6   7   0.0267   0.0786   0.0397   0.0208   0.0517  -0.0066   0.00    0.0
2121 181230.000  -2148744.7628   4426641.4193   4044655.9966   6   7   0.0266   0.0783   0.0396   0.0205   0.0515  -0.0069   0.00    0.0
2121 181260.000  -2148744.7613   4426641.4224   4044655.9978   6   7   0.0266   0.0781   0.0396   0.0204   0.0515  -0.0070   0.00    0.0
2121 181290.000  -2148744.7611   4426641.4254   4044655.9993   6   7   0.0265   0.0780   0.0396   0.0203   0.0514  -0.0071   0.00    0.0
2121 181320.000  -2148744.7606   4426641.4268   4044656.0005   6   7   0.0265   0.0778   0.0395   0.0202   0.0513  -0.0071   0.00    0.0
2121 181350.000  -2148744.7606   4426641.4274   4044656.0010   6   7   0.0264   0.0777   0.0395   0.0201   0.0513  -0.0072   0.00    0.0
2121 181380.000  -2148744.7607   4426641.4267   4044656.0006   6   7   0.0264   0.0776   0.0395   0.0200   0.0512  -0.0073   0.00    0.0
2121 181410.000  -2148744.7609   4426641.4264   4044655.9998   6   7   0.0264   0.0774   0.0394   0.0199   0.0512  -0.0074   0.00    0.0
2121 181440.000  -2148744.7595   4426641.4305   4044656.0014   6   7   0.0263   0.0772   0.0394   0.0197   0.0511  -0.0075   0.00    0.0
2121 181470.000  -2148744.7594   4426641.4304   4044656.0015   6   7   0.0262   0.0769   0.0393   0.0193   0.0509  -0.0078   0.00    0.0
2121 181500.000  -2148744.7607   4426641.4278   4044656.0014   6   7   0.0258   0.0755   0.0390   0.0179   0.0503  -0.0087   0.00    0.0
2121 181530.000  -2148744.7597   4426641.4309   4044656.0022   6   7   0.0257   0.0752   0.0389   0.0177   0.0501  -0.0089   0.00    0.0
2121 181560.000  -2148744.7592   4426641.4345   4044656.0032   6   7   0.0257   0.0750   0.0389   0.0175   0.0501  -0.0090   0.00    0.0
2121 181590.000  -2148744.7586   4426641.4385   4044656.0051   6   7   0.0256   0.0749   0.0388   0.0174   0.0500  -0.0091   0.00    0.0
2121 181620.000  -2148744.7578   4426641.4402   4044656.0056   6   7   0.0256   0.0748   0.0388   0.0173   0.0499  -0.0091   0.00    0.0
2121 181650.000  -2148744.7564   4426641.4432   4044656.0068   6   7   0.0256   0.0747   0.0388   0.0172   0.0499  -0.0092   0.00    0.0
2121 181680.000  -2148744.7564   4426641.4425   4044656.0076   6   7   0.0255   0.0745   0.0387   0.0171   0.0498  -0.0093   0.00    0.0
2121 181710.000  -2148744.7570   4426641.4406   4044656.0074   6   8   0.0255   0.0744   0.0387   0.0169   0.0497  -0.0093   0.00    0.0
2121 181740.000  -2148744.7564   4426641.4440   4044656.0086   6   8   0.0254   0.0742   0.0386   0.0167   0.0496  -0.0094   0.00    0.0
2121 181770.000  -2148744.7574   4426641.4438   4044656.0098   6   8   0.0253   0.0738   0.0385   0.0163   0.0494  -0.0097   0.00    0.0
2121 181800.000  -2148744.7572   4426641.4436   4044656.0094   6   8   0.0250   0.0723   0.0382   0.0148   0.0488  -0.0104   0.00    0.0
2121 181830.000  -2148744.7577   4426641.4425   4044656.0091   6   8   0.0249   0.0720   0.0381   0.0144   0.0486  -0.0106   0.00    0.0
2121 181860.000  -2148744.7580   4426641.4419   4044656.0091   6   8   0.0249   0.0718   0.0381   0.0143   0.0485  -0.0106   0.00    0.0
2121 181890.000  -2148744.7584   4426641.4416   4044656.0093   6   8   0.0248   0.0717   0.0380   0.0141   0.0485  -0.0107   0.00    0.0
2121 181920.000  -2148744.7574   4426641.4457   4044656.0110   6   8   0.0248   0.0716   0.0380   0.0140   0.0484  -0.0108   0.00    0.0
2121 181950.000  -2148744.7570   4426641.4468   4044656.0123   6   8   0.0248   0.0714   0.0379   0.0139   0.0483  -0.0108   0.00    0.0
2121 181980.000  -2148744.7563   4426641.4512   4044656.0131   6   8   0.0247   0.0713   0.0379   0.0137   0.0483  -0.0109   0.00    0.0
2121 182010.000  -2148744.7558   4426641.4546   4044656.0147   6   8   0.0247   0.0712   0.0379   0.0136   0.0482  -0.0109   0.00    0.0
2121 182040.000  -2148744.7556   4426641.4588   4044656.0169   6   8   0.0247   0.0709   0.0378   0.0134   0.0481  -0.0110   0.00    0.0
2121 182070.000  -2148744.7568   4426641.4577   4044656.0173   6   8   0.0246   0.0705   0.0377   0.0129   0.0479  -0.0112   0.00    0.0
2121 182100.000  -2148744.7574   4426641.4556   4044656.0166   6   8   0.0242   0.0691   0.0373   0.0112   0.0471  -0.0117   0.00    0.0
2121 182130.000  -2148744.7567   4426641.4574   4044656.0187   6   8   0.0242   0.0688   0.0372   0.0108   0.0470  -0.0119   0.00    0.0
2121 182160.000  -2148744.7563   4426641.4602   4044656.0203   6   8   0.0241   0.0686   0.0371   0.0106   0.0469  -0.0119   0.00    0.0
2121 182190.000  -2148744.7550   4426641.4631   4044656.0220   6   8   0.0241   0.0684   0.0371   0.0104   0.0468  -0.0120   0.00    0.0
2121 182220.000  -2148744.7545   4426641.4628   4044656.0221   6   8   0.0241   0.0683   0.0371   0.0103   0.0467  -0.0120   0.00    0.0
2121 182250.000  -2148744.7540   4426641.4647   4044656.0228   6   8   0.0240   0.0682   0.0370   0.0101   0.0467  -0.0120   0.00    0.0
2121 182280.000  -2148744.7525   4426641.4679   4044656.0246   6   8   0.0240   0.0681   0.0370   0.0099   0.0466  -0.0121   0.00    0.0
2121 182310.000  -2148744.7518   4426641.4713   4044656.0263   6   8   0.0240   0.0679   0.0369   0.0098   0.0465  -0.0121   0.00    0.0
2121 182340.000  -2148744.7515   4426641.4743   4044656.0279   6   8   0.0239   0.0677   0.0369   0.0095   0.0464  -0.0122   0.00    0.0
2121 182370.000  -2148744.7512   4426641.4799   4044656.0303   6   8   0.0239   0.0673   0.0368   0.0090   0.0462  -0.0123   0.00    0.0
2121 182400.000  -2148744.7515   4426641.4776   4044656.0286   6   8   0.0236   0.0659   0.0363   0.0068   0.0455  -0.0127   0.00    0.0
2121 182430.000  -2148744.7505   4426641.4803   4044656.0295   6   8   0.0235   0.0656   0.0362   0.0063   0.0453  -0.0128   0.00    0.0
2121 182460.000  -2148744.7501   4426641.4782   4044656.0281   6   8   0.0235   0.0654   0.0362   0.0060   0.0452  -0.0129   0.00    0.0
2121 182490.000  -2148744.7492   4426641.4793   4044656.0285   6   8   0.0235   0.0653   0.0361   0.0057   0.0452  -0.0129   0.00    0.0
2121 182520.000  -2148744.7491   4426641.4782   4044656.0287   6   8   0.0234   0.0652   0.0361   0.0055   0.0451  -0.0129   0.00    0.0
2121 182550.000  -2148744.7487   4426641.4780   4044656.0290   6   8   0.0234   0.0651   0.0361   0.0052   0.0450  -0.0130   0.00    0.0
2121 182580.000  -2148744.7488   4426641.4766   4044656.0293   6   8   0.0234   0.0649   0.0360   0.0049   0.0450  -0.0130   0.00    0.0
2121 182610.000  -2148744.7487   4426641.4782   4044656.0303   6   8   0.0233   0.0648   0.0360   0.0046   0.0449  -0.0131   0.00    0.0
2121 182640.000  -2148744.7480   4426641.4820   4044656.0323   6   8   0.0233   0.0646   0.0359   0.0041   0.0448  -0.0131   0.00    0.0
2121 182670.000  -2148744.7486   4426641.4836   4044656.0341   6   8   0.0232   0.0642   0.0358   0.0030   0.0446  -0.0132   0.00    0.0
2121 182700.000  -2148744.7494   4426641.4781   4044656.0309   6   8   0.0230   0.0628   0.0354  -0.0045   0.0438  -0.0135   0.00    0.0
2121 182730.000  -2148744.7492   4426641.4760   4044656.0299   6   8   0.0229   0.0626   0.0353  -0.0051   0.0437  -0.0136   0.00    0.0
2121 182760.000  -2148744.7484   4426641.4777   4044656.0300   6   8   0.0229   0.0624   0.0352  -0.0054   0.0436  -0.0136   0.00    0.0
2121 182790.000  -2148744.7477   4426641.4791   4044656.0302   6   8   0.0229   0.0623   0.0352  -0.0056   0.0435  -0.0137   0.00    0.0
2121 182820.000  -2148744.7485   4426641.4749   4044656.0290   6   8   0.0228   0.0622   0.0351  -0.0058   0.0435  -0.0137   0.00    0.0
2121 182850.000  -2148744.7492   4426641.4737   4044656.0287   6   8   0.0228   0.0621   0.0351  -0.0060   0.0434  -0.0137   0.00    0.0
2121 182880.000  -2148744.7488   4426641.4728   4044656.0284   6   8   0.0228   0.0619   0.0351  -0.0062   0.0433  -0.0137   0.00    0.0
2121 182910.000  -2148744.7483   4426641.4716   4044656.0278   6   8   0.0228   0.0618   0.0350  -0.0065   0.0433  -0.0138   0.00    0.0
2121 182940.000  -2148744.7492   4426641.4680   4044656.0270   6   8   0.0227   0.0616   0.0350  -0.0067   0.0432  -0.0138   0.00    0.0
2121 182970.000  -2148744.7487   4426641.4678   4044656.0278   6   8   0.0227   0.0613   0.0348  -0.0071   0.0430  -0.0139   0.00    0.0
2121 183000.000  -2148744.7480   4426641.4664   4044656.0268   6   8   0.0225   0.0600   0.0344  -0.0085   0.0423  -0.0140   0.00    0.0
2121 183030.000  -2148744.7473   4426641.4640   4044656.0250   6   8   0.0225   0.0598   0.0343  -0.0087   0.0422  -0.0141   0.00    0.0
2121 183060.000  -2148744.7472   4426641.4621   4044656.0247   6   8   0.0224   0.0596   0.0343  -0.0089   0.0421  -0.0141   0.00    0.0
2121 183090.000  -2148744.7472   4426641.4607   4044656.0234   6   8   0.0224   0.0595   0.0343  -0.0090   0.0420  -0.0141   0.00    0.0
2121 183120.000  -2148744.7471   4426641.4595   4044656.0233   6   8   0.0224   0.0594   0.0342  -0.0091   0.0420  -0.0142   0.00    0.0
2121 183150.000  -2148744.7464   4426641.4606   4044656.0242   6   8   0.0224   0.0593   0.0342  -0.0092   0.0419  -0.0142   0.00    0.0
2121 183180.000  -2148744.7465   4426641.4598   4044656.0236   6   8   0.0223   0.0592   0.0341  -0.0094   0.0418  -0.0142   0.00    0.0
2121 183210.000  -2148744.7463   4426641.4595   4044656.0237   6   8   0.0223   0.0591   0.0341  -0.0095   0.0418  -0.0142   0.00    0.0
2121 183240.000  -2148744.7464   4426641.4582   4044656.0238   6   8   0.0223   0.0589   0.0340  -0.0096   0.0417  -0.0142   0.00    0.0
2121 183270.000  -2148744.7456   4426641.4589   4044656.0242   6   8   0.0222   0.0586   0.0339  -0.0099   0.0415  -0.0143   0.00    0.0
2121 183300.000  -2148744.7456   4426641.4549   4044656.0220   6   8   0.0221   0.0575   0.0335  -0.0107   0.0409  -0.0144   0.00    0.0
2121 183330.000  -2148744.7457   4426641.4530   4044656.0207   6   8   0.0220   0.0572   0.0335  -0.0109   0.0407  -0.0145   0.00    0.0
2121 183360.000  -2148744.7453   4426641.4539   4044656.0205   6   8   0.0220   0.0571   0.0334  -0.0110   0.0407  -0.0145   0.00    0.0
2121 183390.000  -2148744.7454   4426641.4532   4044656.0197   6   8   0.0220   0.0570   0.0334  -0.0111   0.0406  -0.0145   0.00    0.0
2121 183420.000  -2148744.7448   4426641.4536   4044656.0198   6   8   0.0220   0.0569   0.0333  -0.0112   0.0405  -0.0145   0.00    0.0
2121 183450.000  -2148744.7452   4426641.4538   4044656.0196   6   8   0.0219   0.0568   0.0333  -0.0112   0.0405  -0.0145   0.00    0.0
2121 183480.000  -2148744.7450   4426641.4532   4044656.0196   6   8   0.0219   0.0567   0.0333  -0.0113   0.0404  -0.0146   0.00    0.0
2121 183510.000  -2148744.7447   4426641.4537   4044656.0200   6   8   0.0219   0.0566   0.0332  -0.0114   0.0404  -0.0146   0.00    0.0
2121 183540.000  -2148744.7448   4426641.4535   4044656.0204   6   8   0.0219   0.0564   0.0332  -0.0115   0.0403  -0.0146   0.00    0.0
2121 183570.000  -2148744.7447   4426641.4526   4044656.0214   6   8   0.0218   0.0561   0.0331  -0.0117   0.0401  -0.0146   0.00    0.0
2121 183600.000  -2148744.7448   4426641.4524   4044656.0207   6   8   0.0217   0.0551   0.0327  -0.0123   0.0395  -0.0147   0.00    0.0
2121 183630.000  -2148744.7446   4426641.4527   4044656.0213   6   8   0.0217   0.0549   0.0326  -0.0124   0.0394  -0.0148   0.00    0.0
2121 183660.000  -2148744.7439   4426641.4550   4044656.0221   6   8   0.0216   0.0548   0.0326  -0.0125   0.0393  -0.0148   0.00    0.0
2121 183690.000  -2148744.7438   4426641.4553   4044656.0226   6   8   0.0216   0.0547   0.0325  -0.0126   0.0393  -0.0148   0.00    0.0
2121 183720.000  -2148744.7439   4426641.4566   4044656.0236   6   9   0.0216   0.0546   0.0325  -0.0126   0.0392  -0.0148   0.00    0.0
2121 183750.000  -2148744.7441   4426641.4553   4044656.0230   6   9   0.0216   0.0545   0.0325  -0.0127   0.0392  -0.0148   0.00    0.0
2121 183780.000  -2148744.7438   4426641.4558   4044656.0230   6   9   0.0216   0.0544   0.0324  -0.0128   0.0391  -0.0148   0.00    0.0
2121 183810.000  -2148744.7437   4426641.4564   4044656.0236   6   9   0.0215   0.0543   0.0324  -0.0128   0.0391  -0.0149   0.00    0.0
2121 183840.000  -2148744.7430   4426641.4592   4044656.0249   6   9   0.0215   0.0541   0.0323  -0.0129   0.0390  -0.0149   0.00    0.0
2121 183870.000  -2148744.7428   4426641.4607   4044656.0255   6   9   0.0215   0.0539   0.0322  -0.0131   0.0388  -0.0149   0.00    0.0
2121 183900.000  -2148744.7435   4426641.4577   4044656.0242   6   9   0.0213   0.0529   0.0319  -0.0135   0.0383  -0.0150   0.00    0.0
2121 183930.000  -2148744.7440   4426641.4556   4044656.0232   6   9   0.0213   0.0527   0.0318  -0.0136   0.0382  -0.0150   0.00    0.0
2121 183960.000  -2148744.7444   4426641.4539   4044656.0221   6   9   0.0213   0.0526   0.0318  -0.0137   0.0381  -0.0150   0.00    0.0
2121 183990.000  -2148744.7447   4426641.4531   4044656.0224   6   9   0.0213   0.0525   0.0317  -0.0137   0.0380  -0.0151   0.00    0.0
2121 184020.000  -2148744.7452   4426641.4511   4044656.0208   6   9   0.0213   0.0524   0.0317  -0.0138   0.0380  -0.0151   0.00    0.0
2121 184050.000  -2148744.7457   4426641.4488   4044656.0194   6   9   0.0212   0.0523   0.0316  -0.0138   0.0379  -0.0151   0.00    0.0
2121 184080.000  -2148744.7456   4426641.4472   4044656.0184   6   9   0.0212   0.0522   0.0316  -0.0139   0.0379  -0.0151   0.00    0.0
2121 184110.000  -2148744.7456   4426641.4480   4044656.0188   6   9   0.0212   0.0521   0.0316  -0.0139   0.0378  -0.0151   0.00    0.0
2121 184140.000  -2148744.7451   4426641.4498   4044656.0194   6   9   0.0212   0.0520   0.0315  -0.0140   0.0377  -0.0151   0.00    0.0
2121 184170.000  -2148744.7447   4426641.4522   4044656.0205   6   9   0.0211   0.0518   0.0314  -0.0141   0.0376  -0.0151   0.00    0.0
2121 184200.000  -2148744.7452   4426641.4495   4044656.0193   6   9   0.0210   0.0509   0.0311  -0.0144   0.0371  -0.0152   0.00    0.0
2121 184230.000  -2148744.7450   4426641.4498   4044656.0191   6   9   0.0210   0.0508   0.0310  -0.0145   0.0370  -0.0152   0.00    0.0
2121 184260.000  -2148744.7447   4426641.4524   4044656.0206   6   9   0.0210   0.0507   0.0310  -0.0146   0.0369  -0.0152   0.00    0.0
2121 184290.000  -2148744.7446   4426641.4534   4044656.0210   6   9   0.0210   0.0506   0.0309  -0.0146   0.0369  -0.0152   0.00    0.0
2121 184320.000  -2148744.7442   4426641.4533   4044656.0207   6   9   0.0209   0.0505   0.0309  -0.0146   0.0368  -0.0152   0.00    0.0
2121 184350.000  -2148744.7441   4426641.4533   4044656.0208   6   9   0.0209   0.0504   0.0309  -0.0147   0.0368  -0.0153   0.00    0.0
2121 184380.000  -2148744.7444   4426641.4518   4044656.0202   6   9   0.0209   0.0503   0.0308  -0.0147   0.0367  -0.0153   0.00    0.0
2121 184410.000  -2148744.7440   4426641.4533   4044656.0209   6   9   0.0209   0.0502   0.0308  -0.0148   0.0367  -0.0153   0.00    0.0
2121 184440.000  -2148744.7440   4426641.4542   4044656.0217   6   9   0.0209   0.0501   0.0307  -0.0148   0.0366  -0.0153   0.00    0.0
2121 184470.000  -2148744.7439   4426641.4553   4044656.0227   6   9   0.0208   0.0499   0.0306  -0.0149   0.0365  -0.0153   0.00    0.0
2121 184500.000  -2148744.7436   4426641.4566   4044656.0224   6   9   0.0207   0.0491   0.0303  -0.0151   0.0360  -0.0153   0.00    0.0
2121 184530.000  -2148744.7432   4426641.4563   4044656.0217   6   9   0.0207   0.0489   0.0302  -0.0152   0.0359  -0.0153   0.00    0.0
2121 184560.000  -2148744.7428   4426641.4563   4044656.0211   6   9   0.0207   0.0488   0.0302  -0.0152   0.0358  -0.0153   0.00    0.0
2121 184590.000  -2148744.7428   4426641.4560   4044656.0208   6   9   0.0207   0.0487   0.0301  -0.0153   0.0357  -0.0154   0.00    0.0
2121 184620.000  -2148744.7427   4426641.4570   4044656.0208   6   9   0.0207   0.0487   0.0301  -0.0153   0.0357  -0.0154   0.00    0.0
2121 184650.000  -2148744.7427   4426641.4571   4044656.0205   6   9   0.0206   0.0486   0.0301  -0.0153   0.0356  -0.0154   0.00    0.0
2121 184680.000  -2148744.7426   4426641.4583   4044656.0206   6   9   0.0206   0.0485   0.0300  -0.0154   0.0356  -0.0154   0.00    0.0
2121 184710.000  -2148744.7426   4426641.4591   4044656.0215   6   9   0.0206   0.0484   0.0300  -0.0154   0.0355  -0.0154   0.00    0.0
2121 184740.000  -2148744.7422   4426641.4613   4044656.0225   6   9   0.0206   0.0483   0.0299  -0.0155   0.0355  -0.0154   0.00    0.0
2121 184770.000  -2148744.7419   4426641.4616   4044656.0221   6   9   0.0206   0.0481   0.0298  -0.0155   0.0354  -0.0154   0.00    0.0
2121 184800.000  -2148744.7420   4426641.4623   4044656.0223   6   9   0.0204   0.0474   0.0295  -0.0157   0.0349  -0.0154   0.00    0.0
2121 184830.000  -2148744.7419   4426641.4623   4044656.0224   6   9   0.0204   0.0472   0.0294  -0.0157   0.0348  -0.0154   0.00    0.0
2121 184860.000  -2148744.7419   4426641.4620   4044656.0216   6   9   0.0204   0.0472   0.0294  -0.0158   0.0347  -0.0154   0.00    0.0
2121 184890.000  -2148744.7417   4426641.4631   4044656.0215   6   9   0.0204   0.0471   0.0293  -0.0158   0.0347  -0.0154   0.00    0.0
2121 184920.000  -2148744.7413   4426641.4646   4044656.0221   6   9   0.0204   0.0470   0.0293  -0.0158   0.0346  -0.0154   0.00    0.0
2121 184950.000  -2148744.7411   4426641.4635   4044656.0216   6   9   0.0204   0.0469   0.0293  -0.0158   0.0346  -0.0154   0.00    0.0
2121 184980.000  -2148744.7407   4426641.4619   4044656.0203   6   9   0.0203   0.0468   0.0292  -0.0159   0.0345  -0.0154   0.00    0.0
2121 185010.000  -2148744.7410   4426641.4599   4044656.0199   6   9   0.0203   0.0468   0.0292  -0.0159   0.0345  -0.0154   0.00    0.0
2121 185040.000  -2148744.7406   4426641.4621   4044656.0216   6   9   0.0203   0.0467   0.0292  -0.0159   0.0344  -0.0154   0.00    0.0
2121 185070.000  -2148744.7405   4426641.4656   4044656.0236   6   9   0.0203   0.0465   0.0291  -0.0160   0.0343  -0.0154   0.00    0.0
2121 185100.000  -2148744.7404   4426641.4685   4044656.0245   6   9   0.0202   0.0458   0.0287  -0.0161   0.0338  -0.0154   0.00    0.0
2121 185130.000  -2148744.7407   4426641.4683   4044656.0249   6   9   0.0202   0.0456   0.0286  -0.0161   0.0337  -0.0154   0.00    0.0
2121 185160.000  -2148744.7405   4426641.4688   4044656.0253   6   9   0.0201   0.0455   0.0286  -0.0161   0.0336  -0.0154   0.00    0.0
2121 185190.000  -2148744.7408   4426641.4684   4044656.0256   6   9   0.0201   0.0455   0.0285  -0.0161   0.0336  -0.0154   0.00    0.0
2121 185220.000  -2148744.7406   4426641.4681   4044656.0255   6   9   0.0201   0.0454   0.0285  -0.0162   0.0335  -0.0154   0.00    0.0
2121 185250.000  -2148744.7406   4426641.4666   4044656.0247   6   9   0.0201   0.0453   0.0285  -0.0162   0.0335  -0.0154   0.00    0.0
2121 185280.000  -2148744.7405   4426641.4660   4044656.0246   6   9   0.0201   0.0452   0.0284  -0.0162   0.0334  -0.0154   0.00    0.0
2121 185310.000  -2148744.7406   4426641.4653   4044656.0241   6   8   0.0201   0.0452   0.0284  -0.0162   0.0334  -0.0154   0.00    0.0
2121 185340.000  -2148744.7407   4426641.4665   4044656.0243   6   8   0.0200   0.0451   0.0284  -0.0163   0.0333  -0.0154   0.00    0.0
2121 185370.000  -2148744.7407   4426641.4674   4044656.0249   6   8   0.0200   0.0449   0.0283  -0.0163   0.0333  -0.0154   0.00    0.0
2121 185400.000  -2148744.7409   4426641.4695   4044656.0258   6   8   0.0199   0.0445   0.0281  -0.0164   0.0329  -0.0154   0.00    0.0
2121 185430.000  -2148744.7413   4426641.4712   4044656.0266   6   8   0.0199   0.0443   0.0280  -0.0164   0.0329  -0.0154   0.00    0.0
2121 185460.000  -2148744.7410   4426641.4716   4044656.0264   6   8   0.0199   0.0443   0.0280  -0.0164   0.0328  -0.0154   0.00    0.0
2121 185490.000  -2148744.7407   4426641.4717   4044656.0265   6   8   0.0199   0.0442   0.0279  -0.0165   0.0328  -0.0154   0.00    0.0
2121 185520.000  -2148744.7406   4426641.4715   4044656.0259   6   8   0.0199   0.0441   0.0279  -0.0165   0.0327  -0.0154   0.00    0.0
2121 185550.000  -2148744.7411   4426641.4709   4044656.0261   6   8   0.0198   0.0441   0.0279  -0.0165   0.0327  -0.0154   0.00    0.0
2121 185580.000  -2148744.7409   4426641.4723   4044656.0268   6   8   0.0198   0.0440   0.0279  -0.0165   0.0327  -0.0154   0.00    0.0
2121 185610.000  -2148744.7410   4426641.4726   4044656.0268   6   8   0.0198   0.0439   0.0278  -0.0165   0.0326  -0.0154   0.00    0.0
2121 185640.000  -2148744.7413   4426641.4730   4044656.0274   6   8   0.0198   0.0439   0.0278  -0.0166   0.0326  -0.0154   0.00    0.0
2121 185670.000  -2148744.7416   4426641.4751   4044656.0288   6   8   0.0198   0.0437   0.0277  -0.0166   0.0325  -0.0154   0.00    0.0
2121 185700.000  -2148744.7413   4426641.4777   4044656.0298   6   8   0.0197   0.0433   0.0275  -0.0167   0.0322  -0.0154   0.00    0.0
2121 185730.000  -2148744.7406   4426641.4775   4044656.0294   6   8   0.0197   0.0432   0.0275  -0.0167   0.0321  -0.0154   0.00    0.0
2121 185760.000  -2148744.7404   4426641.4778   4044656.0295   6   8   0.0196   0.0431   0.0274  -0.0167   0.0321  -0.0154   0.00    0.0
2121 185790.000  -2148744.7405   4426641.4758   4044656.0287   6   8   0.0196   0.0430   0.0274  -0.0167   0.0320  -0.0154   0.00    0.0
2121 185820.000  -2148744.7406   4426641.4754   4044656.0285   6   8   0.0196   0.0430   0.0274  -0.0167   0.0320  -0.0154   0.00    0.0
2121 185850.000  -2148744.7402   4426641.4746   4044656.0276   6   8   0.0196   0.0429   0.0274  -0.0168   0.0320  -0.0154   0.00    0.0
