%  GPST              x-ecef(m)      y-ecef(m)      z-ecef(m)   Q  ns   sdx(m)   sdy(m)   sdz(m)  sdxy(m)  sdyz(m)  sdzx(m) age(s)  ratio
2121 172800.000  -3120043.1145   4084616.1466   3764027.7544   6   8   1.7488   2.1799   3.2601  -1.6290   1.9008  -1.4598   0.00    0.0
2121 172830.000  -3120043.7232   4084616.2911   3764029.0763   6   8   1.1805   1.4569   2.0579  -1.0719   1.2035  -0.9251   0.00    0.0
2121 172860.000  -3120044.1267   4084616.8490   3764029.1113   6   8   0.9548   1.1758   1.6299  -0.8619   0.9637  -0.7432   0.00    0.0
2121 172890.000  -3120044.1162   4084617.0685   3764029.5351   6   8   0.8262   1.0168   1.3946  -0.7447   0.8332  -0.6443   0.00    0.0
2121 172920.000  -3120044.0261   4084617.1534   3764029.8452   6   8   0.7411   0.9119   1.2413  -0.6681   0.7488  -0.5802   0.00    0.0
2121 172950.000  -3120043.9601   4084616.9577   3764029.6767   6   8   0.6799   0.8366   1.1317  -0.6134   0.6888  -0.5346   0.00    0.0
2121 172980.000  -3120044.0580   4084617.1704   3764029.8721   6   8   0.6238   0.7671   1.0207  -0.5604   0.6302  -0.4911   0.00    0.0
2121 173010.000  -3120044.2254   4084617.4309   3764030.0977   6   8   0.5708   0.7016   0.9076  -0.5085   0.5753  -0.4517   0.00    0.0
2121 173040.000  -3120044.4559   4084617.8044   3764030.1296   6   8   0.5199   0.6393   0.7907  -0.4572   0.5247  -0.4168   0.00    0.0
2121 173070.000  -3120044.6496   4084617.9397   3764029.8426   6   8   0.4697   0.5780   0.6696  -0.4051   0.4747  -0.3822   0.00    0.0
2121 173100.000  -3120044.5376   4084617.6311   3764029.2391   6   8   0.4193   0.5119   0.5479  -0.3481   0.4113  -0.3368   0.00    0.0
2121 173130.000  -3120044.4641   4084617.6563   3764029.2490   6   8   0.4042   0.4943   0.5305  -0.3377   0.3991  -0.3270   0.00    0.0
2121 173160.000  -3120044.4374   4084617.6723   3764029.2224   6   8   0.3931   0.4813   0.5196  -0.3311   0.3910  -0.3204   0.00    0.0
2121 173190.000  -3120044.4212   4084617.6121   3764029.2190   6   8   0.3835   0.4702   0.5106  -0.3257   0.3843  -0.3149   0.00    0.0
2121 173220.000  -3120044.4253   4084617.5423   3764029.2059   6   8   0.3751   0.4604   0.5027  -0.3208   0.3785  -0.3099   0.00    0.0
2121 173250.000  -3120044.4270   4084617.5198   3764029.1955   6   8   0.3675   0.4516   0.4955  -0.3164   0.3732  -0.3055   0.00    0.0
2121 173280.000  -3120044.3936   4084617.5583   3764029.2307   6   8   0.3590   0.4418   0.4861  -0.3105   0.3667  -0.3001   0.00    0.0
2121 173310.000  -3120044.4441   4084617.6118   3764029.3390   6   8   0.3490   0.4305   0.4733  -0.3027   0.3588  -0.2933   0.00    0.0
2121 173340.000  -3120044.4987   4084617.6833   3764029.4182   6   8   0.3368   0.4169   0.4547  -0.2921   0.3487  -0.2848   0.00    0.0
2121 173370.000  -3120044.5029   4084617.5887   3764029.3654   6   7   0.3204   0.3993   0.4247  -0.2763   0.3339  -0.2721   0.00    0.0
2121 173400.000  -3120044.1777   4084617.1345   3764028.7701   6   7   0.2954   0.3695   0.3744  -0.2487   0.3044  -0.2494   0.00    0.0
2121 173430.000  -3120044.1192   4084617.0248   3764028.6815   6   7   0.2891   0.3627   0.3672  -0.2442   0.2996  -0.2453   0.00    0.0
2121 173460.000  -3120044.0804   4084616.9549   3764028.6474   6   7   0.2849   0.3580   0.3632  -0.2419   0.2968  -0.2429   0.00    0.0
2121 173490.000  -3120044.0646   4084616.9297   3764028.6307   6   7   0.2813   0.3541   0.3601  -0.2401   0.2946  -0.2410   0.00    0.0
2121 173520.000  -3120044.0607   4084616.9500   3764028.6415   6   7   0.2781   0.3505   0.3573  -0.2386   0.2926  -0.2393   0.00    0.0
2121 173550.000  -3120044.0361   4084616.9300   3764028.6233   6   7   0.2751   0.3472   0.3548  -0.2372   0.2908  -0.2377   0.00    0.0
2121 173580.000  -3120044.0303   4084616.9070   3764028.6543   6   7   0.2717   0.3434   0.3515  -0.2352   0.2886  -0.2357   0.00    0.0
2121 173610.000  -3120044.0332   4084616.9011   3764028.6892   6   7   0.2676   0.3390   0.3469  -0.2324   0.2857  -0.2331   0.00    0.0
2121 173640.000  -3120044.0620   4084616.9428   3764028.7127   6   7   0.2621   0.3334   0.3399  -0.2282   0.2817  -0.2294   0.00    0.0
2121 173670.000  -3120044.0292   4084616.8923   3764028.6329   6   7   0.2535   0.3251   0.3272  -0.2208   0.2748  -0.2230   0.00    0.0
2121 173700.000  -3120043.8177   4084616.5519   3764028.2403   6   7   0.2374   0.3087   0.3005  -0.2050   0.2593  -0.2100   0.00    0.0
2121 173730.000  -3120043.7764   4084616.5078   3764028.1912   6   7   0.2334   0.3047   0.2962  -0.2022   0.2564  -0.2074   0.00    0.0
2121 173760.000  -3120043.7434   4084616.4595   3764028.1605   6   7   0.2310   0.3020   0.2939  -0.2010   0.2548  -0.2061   0.00    0.0
2121 173790.000  -3120043.7200   4084616.4018   3764028.1241   6   7   0.2291   0.2998   0.2922  -0.2001   0.2535  -0.2050   0.00    0.0
2121 173820.000  -3120043.6864   4084616.3804   3764028.1135   6   7   0.2273   0.2977   0.2906  -0.1993   0.2524  -0.2041   0.00    0.0
2121 173850.000  -3120043.6700   4084616.3648   3764028.1122   6   7   0.2257   0.2958   0.2892  -0.1987   0.2513  -0.2033   0.00    0.0
2121 173880.000  -3120043.6743   4084616.3254   3764028.1136   6   7   0.2238   0.2938   0.2874  -0.1977   0.2501  -0.2022   0.00    0.0
2121 173910.000  -3120043.6768   4084616.3323   3764028.1247   6   7   0.2215   0.2913   0.2850  -0.1963   0.2486  -0.2007   0.00    0.0
2121 173940.000  -3120043.6970   4084616.3573   3764028.1488   6   7   0.2182   0.2883   0.2813  -0.1940   0.2464  -0.1985   0.00    0.0
2121 173970.000  -3120043.6895   4084616.3094   3764028.1413   6   7   0.2124   0.2835   0.2741  -0.1895   0.2424  -0.1942   0.00    0.0
2121 174000.000  -3120043.5250   4084616.1017   3764027.9038   6   7   0.1986   0.2730   0.2565  -0.1778   0.2324  -0.1839   0.00    0.0
2121 174030.000  -3120043.5037   4084616.0760   3764027.8710   6   7   0.1959   0.2705   0.2537  -0.1760   0.2305  -0.1821   0.00    0.0
2121 174060.000  -3120043.5044   4084616.0710   3764027.8675   6   7   0.1944   0.2688   0.2521  -0.1752   0.2294  -0.1812   0.00    0.0
2121 174090.000  -3120043.5131   4084616.0697   3764027.8624   6   7   0.1931   0.2673   0.2509  -0.1747   0.2285  -0.1804   0.00    0.0
2121 174120.000  -3120043.5069   4084616.0549   3764027.8558   6   7   0.1920   0.2660   0.2498  -0.1742   0.2277  -0.1798   0.00    0.0
2121 174150.000  -3120043.4878   4084616.0390   3764027.8523   6   7   0.1910   0.2647   0.2489  -0.1738   0.2270  -0.1792   0.00    0.0
2121 174180.000  -3120043.4938   4084616.0422   3764027.8642   6   7   0.1898   0.2634   0.2477  -0.1732   0.2262  -0.1785   0.00    0.0
2121 174210.000  -3120043.5060   4084616.0438   3764027.8738   6   7   0.1882   0.2618   0.2461  -0.1723   0.2251  -0.1775   0.00    0.0
2121 174240.000  -3120043.5171   4084616.0386   3764027.8835   6   7   0.1860   0.2599   0.2438  -0.1709   0.2237  -0.1759   0.00    0.0
2121 174270.000  -3120043.4977   4084615.9949   3764027.8742   6   7   0.1819   0.2569   0.2392  -0.1679   0.2210  -0.1727   0.00    0.0
2121 174300.000  -3120043.3961   4084615.8555   3764027.7436   6   7   0.1710   0.2504   0.2270  -0.1595   0.2143  -0.1644   0.00    0.0
2121 174330.000  -3120043.4077   4084615.8629   3764027.7642   6   7   0.1688   0.2486   0.2248  -0.1581   0.2128  -0.1628   0.00    0.0
2121 174360.000  -3120043.4192   4084615.8707   3764027.7762   6   7   0.1676   0.2473   0.2235  -0.1574   0.2119  -0.1620   0.00    0.0
2121 174390.000  -3120043.4170   4084615.8643   3764027.7731   6   7   0.1667   0.2462   0.2226  -0.1570   0.2112  -0.1614   0.00    0.0
2121 174420.000  -3120043.4104   4084615.8726   3764027.7771   6   7   0.1659   0.2452   0.2217  -0.1566   0.2105  -0.1608   0.00    0.0
2121 174450.000  -3120043.4051   4084615.8685   3764027.7787   6   7   0.1651   0.2442   0.2209  -0.1562   0.2099  -0.1603   0.00    0.0
2121 174480.000  -3120043.4127   4084615.8692   3764027.7869   6   7   0.1642   0.2432   0.2200  -0.1557   0.2091  -0.1597   0.00    0.0
2121 174510.000  -3120043.4199   4084615.8853   3764027.8011   6   7   0.1631   0.2420   0.2188  -0.1550   0.2083  -0.1589   0.00    0.0
2121 174540.000  -3120043.4335   4084615.8939   3764027.8130   6   7   0.1614   0.2406   0.2171  -0.1539   0.2071  -0.1575   0.00    0.0
2121 174570.000  -3120043.4295   4084615.8798   3764027.8049   6   7   0.1581   0.2385   0.2136  -0.1515   0.2050  -0.1549   0.00    0.0
2121 174600.000  -3120043.3399   4084615.7792   3764027.6985   6   7   0.1487   0.2337   0.2040  -0.1444   0.1994  -0.1472   0.00    0.0
2121 174630.000  -3120043.3309   4084615.7757   3764027.6913   6   7   0.1468   0.2322   0.2021  -0.1431   0.1981  -0.1458   0.00    0.0
2121 174660.000  -3120043.3151   4084615.7476   3764027.6672   6   7   0.1458   0.2312   0.2010  -0.1424   0.1973  -0.1450   0.00    0.0
2121 174690.000  -3120043.2992   4084615.7294   3764027.6530   6   7   0.1451   0.2302   0.2002  -0.1420   0.1966  -0.1444   0.00    0.0
2121 174720.000  -3120043.2839   4084615.7176   3764027.6458   6   7   0.1444   0.2294   0.1994  -0.1416   0.1960  -0.1439   0.00    0.0
2121 174750.000  -3120043.2841   4084615.7286   3764027.6550   6   7   0.1438   0.2285   0.1987  -0.1412   0.1954  -0.1434   0.00    0.0
2121 174780.000  -3120043.2697   4084615.7110   3764027.6435   6   7   0.1430   0.2277   0.1979  -0.1407   0.1947  -0.1428   0.00    0.0
2121 174810.000  -3120043.2757   4084615.7047   3764027.6479   6   7   0.1421   0.2267   0.1968  -0.1401   0.1939  -0.1420   0.00    0.0
2121 174840.000  -3120043.2903   4084615.7023   3764027.6579   6   7   0.1407   0.2255   0.1954  -0.1391   0.1928  -0.1409   0.00    0.0
2121 174870.000  -3120043.3145   4084615.7337   3764027.6809   6   7   0.1381   0.2236   0.1926  -0.1369   0.1909  -0.1385   0.00    0.0
2121 174900.000  -3120043.2382   4084615.6571   3764027.6028   6   7   0.1300   0.2191   0.1842  -0.1301   0.1855  -0.1314   0.00    0.0
2121 174930.000  -3120043.2247   4084615.6173   3764027.5768   6   7   0.1285   0.2178   0.1826  -0.1289   0.1843  -0.1301   0.00    0.0
2121 174960.000  -3120043.2214   4084615.6039   3764027.5612   6   7   0.1277   0.2169   0.1817  -0.1283   0.1835  -0.1294   0.00    0.0
2121 174990.000  -3120043.2167   4084615.6035   3764027.5582   6   7   0.1271   0.2160   0.1809  -0.1279   0.1828  -0.1289   0.00    0.0
2121 175020.000  -3120043.2147   4084615.6080   3764027.5584   6   7   0.1265   0.2153   0.1802  -0.1275   0.1822  -0.1284   0.00    0.0
2121 175050.000  -3120043.2137   4084615.6199   3764027.5593   6   7   0.1260   0.2145   0.1795  -0.1271   0.1816  -0.1279   0.00    0.0
2121 175080.000  -3120043.2113   4084615.6138   3764027.5566   6   7   0.1254   0.2137   0.1787  -0.1266   0.1810  -0.1274   0.00    0.0
2121 175110.000  -3120043.2146   4084615.6250   3764027.5654   6   7   0.1246   0.2128   0.1778  -0.1260   0.1802  -0.1267   0.00    0.0
2121 175140.000  -3120043.2270   4084615.6386   3764027.5839   6   7   0.1235   0.2117   0.1765  -0.1251   0.1792  -0.1257   0.00    0.0
2121 175170.000  -3120043.2341   4084615.6522   3764027.5931   6   7   0.1215   0.2101   0.1742  -0.1233   0.1775  -0.1237   0.00    0.0
2121 175200.000  -3120043.1789   4084615.5989   3764027.5358   6   7   0.1150   0.2061   0.1669  -0.1176   0.1725  -0.1176   0.00    0.0
2121 175230.000  -3120043.1675   4084615.6044   3764027.5330   6   7   0.1138   0.2050   0.1655  -0.1165   0.1714  -0.1164   0.00    0.0
2121 175260.000  -3120043.1581   4084615.5990   3764027.5272   6   7   0.1131   0.2041   0.1646  -0.1159   0.1706  -0.1157   0.00    0.0
2121 175290.000  -3120043.1502   4084615.6010   3764027.5272   6   7   0.1125   0.2033   0.1638  -0.1154   0.1700  -0.1152   0.00    0.0
2121 175320.000  -3120043.1436   4084615.5958   3764027.5211   6   7   0.1120   0.2026   0.1632  -0.1150   0.1693  -0.1147   0.00    0.0
2121 175350.000  -3120043.1367   4084615.6036   3764027.5221   6   7   0.1116   0.2019   0.1625  -0.1146   0.1687  -0.1143   0.00    0.0
2121 175380.000  -3120043.1304   4084615.6036   3764027.5198   6   7   0.1111   0.2011   0.1618  -0.1142   0.1681  -0.1138   0.00    0.0
2121 175410.000  -3120043.1333   4084615.6274   3764027.5360   6   7   0.1104   0.2003   0.1610  -0.1136   0.1674  -0.1132   0.00    0.0
2121 175440.000  -3120043.1435   4084615.6339   3764027.5442   6   7   0.1096   0.1993   0.1599  -0.1128   0.1664  -0.1123   0.00    0.0
2121 175470.000  -3120043.1569   4084615.6566   3764027.5655   6   7   0.1079   0.1978   0.1579  -0.1112   0.1649  -0.1106   0.00    0.0
2121 175500.000  -3120043.1269   4084615.6081   3764027.5312   6   7   0.1025   0.1941   0.1515  -0.1061   0.1602  -0.1052   0.00    0.0
2121 175530.000  -3120043.1107   4084615.5914   3764027.5132   6   7   0.1015   0.1930   0.1501  -0.1051   0.1591  -0.1041   0.00    0.0
2121 175560.000  -3120043.0973   4084615.5750   3764027.5002   6   7   0.1009   0.1922   0.1493  -0.1046   0.1584  -0.1035   0.00    0.0
2121 175590.000  -3120043.0901   4084615.5712   3764027.4947   6   7   0.1004   0.1915   0.1486  -0.1041   0.1578  -0.1031   0.00    0.0
2121 175620.000  -3120043.0858   4084615.5776   3764027.4925   6   7   0.1000   0.1908   0.1480  -0.1038   0.1572  -0.1026   0.00    0.0
2121 175650.000  -3120043.0882   4084615.5927   3764027.4996   6   7   0.0996   0.1901   0.1475  -0.1034   0.1566  -0.1022   0.00    0.0
2121 175680.000  -3120043.0865   4084615.6099   3764027.5021   6   7   0.0992   0.1894   0.1468  -0.1030   0.1560  -0.1018   0.00    0.0
2121 175710.000  -3120043.0907   4084615.6070   3764027.5047   6   7   0.0987   0.1886   0.1461  -0.1025   0.1554  -0.1012   0.00    0.0
2121 175740.000  -3120043.0913   4084615.6200   3764027.5101   6   7   0.0979   0.1877   0.1451  -0.1017   0.1545  -0.1004   0.00    0.0
2121 175770.000  -3120043.1043   4084615.6418   3764027.5239   6   7   0.0965   0.1863   0.1432  -0.1002   0.1530  -0.0989   0.00    0.0
2121 175800.000  -3120043.0752   4084615.6047   3764027.4985   6   7   0.0917   0.1824   0.1371  -0.0952   0.1483  -0.0937   0.00    0.0
2121 175830.000  -3120043.0664   4084615.5997   3764027.4918   6   7   0.0908   0.1813   0.1359  -0.0942   0.1472  -0.0928   0.00    0.0
2121 175860.000  -3120043.0611   4084615.5788   3764027.4797   6   7   0.0903   0.1805   0.1351  -0.0937   0.1465  -0.0922   0.00    0.0
2121 175890.000  -3120043.0557   4084615.5643   3764027.4678   6   7   0.0899   0.1798   0.1345  -0.0933   0.1458  -0.0917   0.00    0.0
2121 175920.000  -3120043.0569   4084615.5679   3764027.4667   6   7   0.0895   0.1792   0.1339  -0.0929   0.1453  -0.0913   0.00    0.0
2121 175950.000  -3120043.0505   4084615.5594   3764027.4553   6   7   0.0891   0.1786   0.1334  -0.0925   0.1448  -0.0910   0.00    0.0
2121 175980.000  -3120043.0505   4084615.5636   3764027.4578   6   7   0.0888   0.1779   0.1328  -0.0921   0.1442  -0.0906   0.00    0.0
2121 176010.000  -3120043.0495   4084615.5636   3764027.4581   6   7   0.0883   0.1772   0.1321  -0.0917   0.1435  -0.0901   0.00    0.0
2121 176040.000  -3120043.0552   4084615.5721   3764027.4649   6   7   0.0877   0.1763   0.1312  -0.0910   0.1427  -0.0894   0.00    0.0
2121 176070.000  -3120043.0701   4084615.5991   3764027.4858   6   7   0.0866   0.1750   0.1296  -0.0897   0.1413  -0.0880   0.00    0.0
2121 176100.000  -3120043.0305   4084615.5482   3764027.4428   6   7   0.0826   0.1710   0.1241  -0.0850   0.1367  -0.0835   0.00    0.0
2121 176130.000  -3120043.0213   4084615.5440   3764027.4384   6   7   0.0818   0.1700   0.1230  -0.0841   0.1357  -0.0825   0.00    0.0
2121 176160.000  -3120043.0164   4084615.5256   3764027.4244   6   8   0.0813   0.1693   0.1223  -0.0836   0.1350  -0.0820   0.00    0.0
2121 176190.000  -3120043.0175   4084615.5264   3764027.4238   6   8   0.0810   0.1686   0.1217  -0.0832   0.1345  -0.0816   0.00    0.0
2121 176220.000  -3120043.0183   4084615.5380   3764027.4321   6   8   0.0806   0.1680   0.1212  -0.0828   0.1339  -0.0812   0.00    0.0
2121 176250.000  -3120043.0095   4084615.5385   3764027.4256   6   8   0.0803   0.1674   0.1207  -0.0825   0.1334  -0.0809   0.00    0.0
2121 176280.000  -3120043.0103   4084615.5384   3764027.4258   6   8   0.0800   0.1668   0.1201  -0.0821   0.1329  -0.0805   0.00    0.0
2121 176310.000  -3120043.0117   4084615.5440   3764027.4310   6   8   0.0795   0.1660   0.1195  -0.0816   0.1322  -0.0800   0.00    0.0
2121 176340.000  -3120043.0203   4084615.5570   3764027.4440   6   8   0.0790   0.1652   0.1186  -0.0809   0.1314  -0.0794   0.00    0.0
2121 176370.000  -3120043.0280   4084615.5612   3764027.4483   6   8   0.0780   0.1638   0.1171  -0.0796   0.1300  -0.0781   0.00    0.0
2121 176400.000  -3120042.9896   4084615.5042   3764027.3966   6   8   0.0745   0.1596   0.1117  -0.0749   0.1252  -0.0737   0.00    0.0
2121 176430.000  -3120042.9785   4084615.4882   3764027.3800   6   8   0.0738   0.1585   0.1106  -0.0740   0.1242  -0.0729   0.00    0.0
2121 176460.000  -3120042.9739   4084615.4777   3764027.3697   6   8   0.0734   0.1577   0.1099  -0.0735   0.1235  -0.0724   0.00    0.0
2121 176490.000  -3120042.9723   4084615.4759   3764027.3690   6   8   0.0731   0.1571   0.1094  -0.0731   0.1229  -0.0720   0.00    0.0
2121 176520.000  -3120042.9706   4084615.4797   3764027.3694   6   8   0.0728   0.1565   0.1089  -0.0727   0.1224  -0.0716   0.00    0.0
2121 176550.000  -3120042.9653   4084615.4766   3764027.3630   6   8   0.0725   0.1559   0.1084  -0.0724   0.1219  -0.0713   0.00    0.0
2121 176580.000  -3120042.9628   4084615.4797   3764027.3621   6   8   0.0722   0.1553   0.1079  -0.0720   0.1214  -0.0709   0.00    0.0
2121 176610.000  -3120042.9684   4084615.4932   3764027.3722   6   8   0.0718   0.1547   0.1074  -0.0716   0.1208  -0.0705   0.00    0.0
2121 176640.000  -3120042.9743   4084615.4999   3764027.3775   6   7   0.0714   0.1539   0.1066  -0.0710   0.1201  -0.0699   0.00    0.0
2121 176670.000  -3120042.9804   4084615.5074   3764027.3840   6   7   0.0705   0.1525   0.1052  -0.0697   0.1187  -0.0688   0.00    0.0
2121 176700.000  -3120042.9477   4084615.4576   3764027.3452   6   7   0.0673   0.1477   0.0998  -0.0646   0.1136  -0.0644   0.00    0.0
2121 176730.000  -3120042.9412   4084615.4526   3764027.3400   6   7   0.0667   0.1466   0.0988  -0.0637   0.1125  -0.0636   0.00    0.0
2121 176760.000  -3120042.9370   4084615.4443   3764027.3331   6   7   0.0664   0.1460   0.0982  -0.0632   0.1120  -0.0632   0.00    0.0
2121 176790.000  -3120042.9298   4084615.4389   3764027.3273   6   7   0.0661   0.1454   0.0977  -0.0628   0.1115  -0.0628   0.00    0.0
2121 176820.000  -3120042.9255   4084615.4256   3764027.3168   6   7   0.0659   0.1449   0.0973  -0.0625   0.1110  -0.0625   0.00    0.0
2121 176850.000  -3120042.9240   4084615.4254   3764027.3171   6   7   0.0656   0.1444   0.0969  -0.0622   0.1106  -0.0623   0.00    0.0
2121 176880.000  -3120042.9187   4084615.4155   3764027.3075   6   7   0.0654   0.1439   0.0965  -0.0619   0.1101  -0.0620   0.00    0.0
2121 176910.000  -3120042.9170   4084615.4114   3764027.3071   6   7   0.0651   0.1433   0.0960  -0.0615   0.1096  -0.0616   0.00    0.0
2121 176940.000  -3120042.9189   4084615.4175   3764027.3093   6   7   0.0647   0.1425   0.0953  -0.0609   0.1089  -0.0610   0.00    0.0
2121 176970.000  -3120042.9230   4084615.4219   3764027.3151   6   7   0.0639   0.1410   0.0939  -0.0596   0.1074  -0.0599   0.00    0.0
2121 177000.000  -3120042.8937   4084615.3779   3764027.2759   6   7   0.0610   0.1358   0.0885  -0.0540   0.1021  -0.0555   0.00    0.0
2121 177030.000  -3120042.8866   4084615.3657   3764027.2668   6   7   0.0605   0.1347   0.0875  -0.0531   0.1010  -0.0547   0.00    0.0
2121 177060.000  -3120042.8810   4084615.3611   3764027.2601   6   7   0.0602   0.1340   0.0870  -0.0526   0.1004  -0.0543   0.00    0.0
2121 177090.000  -3120042.8753   4084615.3576   3764027.2528   6   7   0.0599   0.1335   0.0865  -0.0522   0.0999  -0.0540   0.00    0.0
2121 177120.000  -3120042.8690   4084615.3472   3764027.2420   6   7   0.0597   0.1330   0.0861  -0.0519   0.0995  -0.0537   0.00    0.0
2121 177150.000  -3120042.8646   4084615.3377   3764027.2348   6   7   0.0595   0.1326   0.0858  -0.0516   0.0991  -0.0534   0.00    0.0
2121 177180.000  -3120042.8627   4084615.3365   3764027.2344   6   7   0.0593   0.1321   0.0854  -0.0513   0.0987  -0.0531   0.00    0.0
2121 177210.000  -3120042.8615   4084615.3347   3764027.2317   6   7   0.0590   0.1315   0.0849  -0.0508   0.0982  -0.0528   0.00    0.0
2121 177240.000  -3120042.8636   4084615.3343   3764027.2333   6   7   0.0586   0.1307   0.0842  -0.0502   0.0974  -0.0522   0.00    0.0
2121 177270.000  -3120042.8641   4084615.3309   3764027.2293   6   7   0.0579   0.1291   0.0828  -0.0487   0.0959  -0.0511   0.00    0.0
2121 177300.000  -3120042.8470   4084615.2971   3764027.2043   6   7   0.0554   0.1237   0.0776  -0.0427   0.0905  -0.0467   0.00    0.0
2121 177330.000  -3120042.8408   4084615.2981   3764027.2023   6   7   0.0550   0.1231   0.0770  -0.0421   0.0899  -0.0462   0.00    0.0
2121 177360.000  -3120042.8356   4084615.2923   3764027.1954   6   7   0.0548   0.1226   0.0767  -0.0417   0.0895  -0.0460   0.00    0.0
2121 177390.000  -3120042.8349   4084615.2854   3764027.1899   6   7   0.0546   0.1222   0.0764  -0.0414   0.0892  -0.0457   0.00    0.0
2121 177420.000  -3120042.8324   4084615.2819   3764027.1849   6   8   0.0544   0.1219   0.0761  -0.0412   0.0889  -0.0455   0.00    0.0
2121 177450.000  -3120042.8310   4084615.2824   3764027.1849   6   8   0.0542   0.1215   0.0758  -0.0409   0.0886  -0.0453   0.00    0.0
2121 177480.000  -3120042.8272   4084615.2844   3764027.1841   6   8   0.0540   0.1211   0.0755  -0.0407   0.0882  -0.0451   0.00    0.0
2121 177510.000  -3120042.8256   4084615.2815   3764027.1815   6   8   0.0538   0.1206   0.0751  -0.0404   0.0879  -0.0448   0.00    0.0
2121 177540.000  -3120042.8296   4084615.2895   3764027.1895   6   8   0.0536   0.1201   0.0747  -0.0399   0.0874  -0.0445   0.00    0.0
2121 177570.000  -3120042.8318   4084615.2890   3764027.1917   6   8   0.0532   0.1194   0.0741  -0.0392   0.0868  -0.0439   0.00    0.0
2121 177600.000  -3120042.8172   4084615.2707   3764027.1768   6   8   0.0518   0.1177   0.0723  -0.0365   0.0851  -0.0421   0.00    0.0
2121 177630.000  -3120042.8078   4084615.2636   3764027.1667   6   8   0.0515   0.1171   0.0718  -0.0360   0.0846  -0.0417   0.00    0.0
2121 177660.000  -3120042.8043   4084615.2585   3764027.1617   6   8   0.0513   0.1167   0.0715  -0.0356   0.0842  -0.0414   0.00    0.0
2121 177690.000  -3120042.8026   4084615.2618   3764027.1630   6   8   0.0511   0.1163   0.0712  -0.0353   0.0839  -0.0412   0.00    0.0
2121 177720.000  -3120042.8029   4084615.2661   3764027.1639   6   8   0.0509   0.1159   0.0709  -0.0351   0.0836  -0.0410   0.00    0.0
2121 177750.000  -3120042.8026   4084615.2665   3764027.1621   6   8   0.0508   0.1156   0.0707  -0.0348   0.0833  -0.0408   0.00    0.0
2121 177780.000  -3120042.8025   4084615.2694   3764027.1631   6   8   0.0506   0.1152   0.0704  -0.0346   0.0830  -0.0406   0.00    0.0
2121 177810.000  -3120042.8035   4084615.2720   3764027.1635   6   8   0.0504   0.1148   0.0701  -0.0343   0.0827  -0.0404   0.00    0.0
2121 177840.000  -3120042.8050   4084615.2674   3764027.1626   6   8   0.0502   0.1144   0.0698  -0.0339   0.0823  -0.0401   0.00    0.0
2121 177870.000  -3120042.8048   4084615.2722   3764027.1650   6   8   0.0499   0.1138   0.0693  -0.0333   0.0818  -0.0397   0.00    0.0
2121 177900.000  -3120042.7930   4084615.2526   3764027.1484   6   8   0.0488   0.1124   0.0679  -0.0310   0.0805  -0.0382   0.00    0.0
2121 177930.000  -3120042.7891   4084615.2514   3764027.1439   6   8   0.0485   0.1120   0.0675  -0.0305   0.0801  -0.0379   0.00    0.0
2121 177960.000  -3120042.7853   4084615.2483   3764027.1393   6   8   0.0484   0.1116   0.0672  -0.0302   0.0798  -0.0377   0.00    0.0
2121 177990.000  -3120042.7817   4084615.2508   3764027.1391   6   8   0.0482   0.1113   0.0670  -0.0300   0.0795  -0.0375   0.00    0.0
2121 178020.000  -3120042.7799   4084615.2482   3764027.1366   6   8   0.0481   0.1109   0.0667  -0.0298   0.0793  -0.0373   0.00    0.0
2121 178050.000  -3120042.7796   4084615.2526   3764027.1379   6   7   0.0480   0.1107   0.0666  -0.0297   0.0791  -0.0372   0.00    0.0
2121 178080.000  -3120042.7779   4084615.2533   3764027.1365   6   7   0.0479   0.1105   0.0664  -0.0295   0.0789  -0.0371   0.00    0.0
2121 178110.000  -3120042.7769   4084615.2550   3764027.1382   6   7   0.0477   0.1102   0.0663  -0.0294   0.0787  -0.0370   0.00    0.0
2121 178140.000  -3120042.7776   4084615.2591   3764027.1397   6   7   0.0476   0.1099   0.0661  -0.0291   0.0785  -0.0368   0.00    0.0
2121 178170.000  -3120042.7817   4084615.2636   3764027.1441   6   7   0.0473   0.1095   0.0657  -0.0287   0.0782  -0.0365   0.00    0.0
2121 178200.000  -3120042.7697   4084615.2387   3764027.1261   6   7   0.0465   0.1085   0.0647  -0.0268   0.0773  -0.0354   0.00    0.0
2121 178230.000  -3120042.7636   4084615.2356   3764027.1201   6   7   0.0463   0.1082   0.0644  -0.0264   0.0770  -0.0352   0.00    0.0
2121 178260.000  -3120042.7608   4084615.2319   3764027.1179   6   7   0.0461   0.1080   0.0643  -0.0263   0.0768  -0.0350   0.00    0.0
2121 178290.000  -3120042.7606   4084615.2265   3764027.1159   6   7   0.0460   0.1077   0.0641  -0.0261   0.0767  -0.0349   0.00    0.0
2121 178320.000  -3120042.7576   4084615.2283   3764027.1144   6   8   0.0459   0.1075   0.0640  -0.0260   0.0765  -0.0348   0.00    0.0
2121 178350.000  -3120042.7548   4084615.2276   3764027.1120   6   8   0.0458   0.1072   0.0638  -0.0259   0.0763  -0.0348   0.00    0.0
2121 178380.000  -3120042.7539   4084615.2249   3764027.1100   6   8   0.0457   0.1070   0.0637  -0.0258   0.0761  -0.0347   0.00    0.0
2121 178410.000  -3120042.7524   4084615.2180   3764027.1068   6   8   0.0456   0.1067   0.0635  -0.0257   0.0759  -0.0346   0.00    0.0
2121 178440.000  -3120042.7538   4084615.2163   3764027.1072   6   8   0.0455   0.1064   0.0633  -0.0255   0.0757  -0.0344   0.00    0.0
2121 178470.000  -3120042.7526   4084615.2174   3764027.1081   6   8   0.0452   0.1061   0.0630  -0.0251   0.0754  -0.0342   0.00    0.0
2121 178500.000  -3120042.7459   4084615.2016   3764027.0986   6   8   0.0446   0.1053   0.0623  -0.0236   0.0747  -0.0333   0.00    0.0
2121 178530.000  -3120042.7445   4084615.1935   3764027.0954   6   8   0.0444   0.1049   0.0620  -0.0233   0.0745  -0.0331   0.00    0.0
2121 178560.000  -3120042.7429   4084615.1916   3764027.0943   6   8   0.0443   0.1047   0.0619  -0.0232   0.0743  -0.0330   0.00    0.0
2121 178590.000  -3120042.7428   4084615.1928   3764027.0936   6   8   0.0442   0.1045   0.0617  -0.0231   0.0741  -0.0330   0.00    0.0
2121 178620.000  -3120042.7417   4084615.1909   3764027.0919   6   8   0.0441   0.1042   0.0616  -0.0230   0.0740  -0.0329   0.00    0.0
2121 178650.000  -3120042.7412   4084615.1947   3764027.0932   6   8   0.0440   0.1040   0.0615  -0.0229   0.0738  -0.0328   0.00    0.0
2121 178680.000  -3120042.7406   4084615.1954   3764027.0923   6   8   0.0439   0.1038   0.0614  -0.0228   0.0737  -0.0327   0.00    0.0
2121 178710.000  -3120042.7415   4084615.1947   3764027.0926   6   8   0.0438   0.1036   0.0612  -0.0227   0.0735  -0.0326   0.00    0.0
2121 178740.000  -3120042.7425   4084615.1946   3764027.0939   6   8   0.0437   0.1033   0.0611  -0.0226   0.0733  -0.0325   0.00    0.0
2121 178770.000  -3120042.7419   4084615.1904   3764027.0932   6   8   0.0435   0.1030   0.0608  -0.0223   0.0731  -0.0323   0.00    0.0
2121 178800.000  -3120042.7352   4084615.1801   3764027.0861   6   8   0.0429   0.1024   0.0603  -0.0212   0.0726  -0.0317   0.00    0.0
2121 178830.000  -3120042.7314   4084615.1717   3764027.0792   6   8   0.0428   0.1021   0.0601  -0.0210   0.0724  -0.0316   0.00    0.0
2121 178860.000  -3120042.7293   4084615.1738   3764027.0808   6   8   0.0427   0.1019   0.0599  -0.0209   0.0722  -0.0315   0.00    0.0
2121 178890.000  -3120042.7284   4084615.1806   3764027.0835   6   8   0.0426   0.1017   0.0598  -0.0208   0.0721  -0.0314   0.00    0.0
2121 178920.000  -3120042.7262   4084615.1783   3764027.0818   6   8   0.0425   0.1014   0.0597  -0.0207   0.0719  -0.0314   0.00    0.0
2121 178950.000  -3120042.7256   4084615.1769   3764027.0806   6   8   0.0424   0.1013   0.0596  -0.0207   0.0718  -0.0313   0.00    0.0
2121 178980.000  -3120042.7239   4084615.1753   3764027.0794   6   8   0.0424   0.1010   0.0595  -0.0206   0.0717  -0.0313   0.00    0.0
2121 179010.000  -3120042.7215   4084615.1760   3764027.0789   6   8   0.0423   0.1008   0.0594  -0.0205   0.0715  -0.0312   0.00    0.0
2121 179040.000  -3120042.7215   4084615.1713   3764027.0775   6   8   0.0422   0.1006   0.0592  -0.0204   0.0713  -0.0311   0.00    0.0
2121 179070.000  -3120042.7221   4084615.1696   3764027.0775   6   8   0.0420   0.1003   0.0590  -0.0202   0.0711  -0.0310   0.00    0.0
2121 179100.000  -3120042.7201   4084615.1588   3764027.0697   6   8   0.0415   0.0998   0.0586  -0.0196   0.0708  -0.0305   0.00    0.0
2121 179130.000  -3120042.7176   4084615.1574   3764027.0680   6   8   0.0414   0.0996   0.0585  -0.0194   0.0707  -0.0304   0.00    0.0
2121 179160.000  -3120042.7140   4084615.1588   3764027.0673   6   8   0.0413   0.0994   0.0584  -0.0193   0.0705  -0.0304   0.00    0.0
2121 179190.000  -3120042.7129   4084615.1542   3764027.0638   6   8   0.0412   0.0992   0.0583  -0.0193   0.0704  -0.0303   0.00    0.0
2121 179220.000  -3120042.7110   4084615.1563   3764027.0627   6   8   0.0411   0.0990   0.0582  -0.0192   0.0702  -0.0303   0.00    0.0
2121 179250.000  -3120042.7099   4084615.1578   3764027.0624   6   8   0.0411   0.0988   0.0581  -0.0192   0.0701  -0.0302   0.00    0.0
2121 179280.000  -3120042.7081   4084615.1518   3764027.0575   6   8   0.0410   0.0986   0.0580  -0.0191   0.0700  -0.0302   0.00    0.0
2121 179310.000  -3120042.7066   4084615.1548   3764027.0585   6   8   0.0409   0.0984   0.0578  -0.0190   0.0698  -0.0301   0.00    0.0
2121 179340.000  -3120042.7065   4084615.1504   3764027.0564   6   8   0.0408   0.0982   0.0577  -0.0190   0.0697  -0.0300   0.00    0.0
2121 179370.000  -3120042.7043   4084615.1477   3764027.0566   6   8   0.0406   0.0980   0.0576  -0.0189   0.0695  -0.0299   0.00    0.0
2121 179400.000  -3120042.6997   4084615.1335   3764027.0459   6   8   0.0402   0.0976   0.0573  -0.0186   0.0693  -0.0296   0.00    0.0
2121 179430.000  -3120042.6980   4084615.1282   3764027.0438   6   8   0.0401   0.0973   0.0571  -0.0185   0.0691  -0.0296   0.00    0.0
2121 179460.000  -3120042.6989   4084615.1314   3764027.0463   6   8   0.0400   0.0971   0.0570  -0.0185   0.0690  -0.0295   0.00    0.0
2121 179490.000  -3120042.6964   4084615.1340   3764027.0468   6   8   0.0399   0.0970   0.0569  -0.0184   0.0689  -0.0295   0.00    0.0
2121 179520.000  -3120042.6942   4084615.1342   3764027.0453   6   8   0.0399   0.0968   0.0568  -0.0184   0.0688  -0.0294   0.00    0.0
2121 179550.000  -3120042.6931   4084615.1380   3764027.0464   6   8   0.0398   0.0966   0.0568  -0.0184   0.0687  -0.0294   0.00    0.0
2121 179580.000  -3120042.6908   4084615.1356   3764027.0446   6   8   0.0397   0.0965   0.0567  -0.0184   0.0685  -0.0293   0.00    0.0
2121 179610.000  -3120042.6886   4084615.1385   3764027.0444   6   8   0.0397   0.0963   0.0566  -0.0183   0.0684  -0.0293   0.00    0.0
2121 179640.000  -3120042.6859   4084615.1379   3764027.0435   6   8   0.0396   0.0961   0.0565  -0.0183   0.0683  -0.0292   0.00    0.0
2121 179670.000  -3120042.6831   4084615.1343   3764027.0404   6   8   0.0395   0.0958   0.0563  -0.0182   0.0681  -0.0292   0.00    0.0
2121 179700.000  -3120042.6776   4084615.1241   3764027.0342   6   8   0.0394   0.0954   0.0560  -0.0179   0.0678  -0.0290   0.00    0.0
2121 179730.000  -3120042.6774   4084615.1257   3764027.0348   6   8   0.0393   0.0952   0.0559  -0.0178   0.0677  -0.0289   0.00    0.0
2121 179760.000  -3120042.6787   4084615.1255   3764027.0349   6   8   0.0392   0.0950   0.0558  -0.0178   0.0676  -0.0289   0.00    0.0
2121 179790.000  -3120042.6782   4084615.1249   3764027.0344   6   8   0.0392   0.0948   0.0557  -0.0178   0.0675  -0.0288   0.00    0.0
2121 179820.000  -3120042.6773   4084615.1272   3764027.0347   6   8   0.0391   0.0946   0.0556  -0.0178   0.0674  -0.0288   0.00    0.0
2121 179850.000  -3120042.6766   4084615.1299   3764027.0357   6   8   0.0390   0.0945   0.0555  -0.0178   0.0673  -0.0288   0.00    0.0
2121 179880.000  -3120042.6764   4084615.1316   3764027.0368   6   8   0.0390   0.0943   0.0555  -0.0177   0.0671  -0.0287   0.00    0.0
2121 179910.000  -3120042.6766   4084615.1293   3764027.0366   6   8   0.0389   0.0942   0.0554  -0.0177   0.0670  -0.0287   0.00    0.0
2121 179940.000  -3120042.6733   4084615.1267   3764027.0349   6   8   0.0389   0.0940   0.0553  -0.0177   0.0669  -0.0286   0.00    0.0
2121 179970.000  -3120042.6713   4084615.1216   3764027.0319   6   8   0.0388   0.0937   0.0551  -0.0176   0.0667  -0.0286   0.00    0.0
2121 180000.000  -3120042.6660   4084615.1109   3764027.0247   6   8   0.0386   0.0931   0.0546  -0.0171   0.0662  -0.0283   0.00    0.0
2121 180030.000  -3120042.6659   4084615.1159   3764027.0273   6   8   0.0385   0.0929   0.0545  -0.0171   0.0661  -0.0282   0.00    0.0
2121 180060.000  -3120042.6651   4084615.1191   3764027.0293   6   8   0.0385   0.0927   0.0544  -0.0171   0.0660  -0.0282   0.00    0.0
2121 180090.000  -3120042.6641   4084615.1204   3764027.0300   6   8   0.0384   0.0925   0.0544  -0.0171   0.0659  -0.0282   0.00    0.0
2121 180120.000  -3120042.6612   4084615.1232   3764027.0300   6   8   0.0384   0.0924   0.0543  -0.0171   0.0658  -0.0281   0.00    0.0
2121 180150.000  -3120042.6611   4084615.1253   3764027.0313   6   8   0.0383   0.0922   0.0542  -0.0171   0.0657  -0.0281   0.00    0.0
2121 180180.000  -3120042.6607   4084615.1201   3764027.0290   6   8   0.0383   0.0921   0.0541  -0.0171   0.0656  -0.0281   0.00    0.0
2121 180210.000  -3120042.6611   4084615.1245   3764027.0322   6   9   0.0382   0.0919   0.0541  -0.0171   0.0655  -0.0281   0.00    0.0
2121 180240.000  -3120042.6619   4084615.1246   3764027.0332   6   9   0.0381   0.0917   0.0540  -0.0171   0.0653  -0.0281   0.00    0.0
2121 180270.000  -3120042.6620   4084615.1200   3764027.0328   6   9   0.0381   0.0915   0.0539  -0.0171   0.0652  -0.0280   0.00    0.0
2121 180300.000  -3120042.6611   4084615.1119   3764027.0297   6   9   0.0379   0.0909   0.0536  -0.0170   0.0649  -0.0279   0.00    0.0
2121 180330.000  -3120042.6586   4084615.1137   3764027.0302   6   9   0.0378   0.0907   0.0535  -0.0170   0.0647  -0.0279   0.00    0.0
2121 180360.000  -3120042.6583   4084615.1104   3764027.0290   6   9   0.0378   0.0905   0.0534  -0.0170   0.0646  -0.0278   0.00    0.0
2121 180390.000  -3120042.6580   4084615.1086   3764027.0284   6   9   0.0377   0.0904   0.0534  -0.0170   0.0645  -0.0278   0.00    0.0
2121 180420.000  -3120042.6594   4084615.1151   3764027.0315   6   9   0.0377   0.0902   0.0533  -0.0170   0.0644  -0.0278   0.00    0.0
2121 180450.000  -3120042.6615   4084615.1192   3764027.0340   6   9   0.0376   0.0901   0.0532  -0.0170   0.0643  -0.0278   0.00    0.0
2121 180480.000  -3120042.6605   4084615.1185   3764027.0337   6   9   0.0376   0.0899   0.0531  -0.0171   0.0642  -0.0278   0.00    0.0
2121 180510.000  -3120042.6619   4084615.1218   3764027.0357   6   9   0.0375   0.0897   0.0531  -0.0171   0.0641  -0.0278   0.00    0.0
2121 180540.000  -3120042.6592   4084615.1200   3764027.0345   6   9   0.0375   0.0895   0.0530  -0.0171   0.0640  -0.0277   0.00    0.0
2121 180570.000  -3120042.6565   4084615.1120   3764027.0299   6   9   0.0374   0.0892   0.0528  -0.0170   0.0638  -0.0277   0.00    0.0
2121 180600.000  -3120042.6567   4084615.1080   3764027.0290   6   9   0.0372   0.0884   0.0524  -0.0167   0.0632  -0.0274   0.00    0.0
2121 180630.000  -3120042.6570   4084615.1142   3764027.0320   6   9   0.0371   0.0882   0.0523  -0.0166   0.0631  -0.0274   0.00    0.0
2121 180660.000  -3120042.6576   4084615.1121   3764027.0307   6   9   0.0370   0.0880   0.0522  -0.0166   0.0629  -0.0273   0.00    0.0
2121 180690.000  -3120042.6570   4084615.1097   3764027.0288   6   9   0.0370   0.0878   0.0521  -0.0166   0.0628  -0.0273   0.00    0.0
2121 180720.000  -3120042.6562   4084615.1116   3764027.0295   6   9   0.0369   0.0876   0.0520  -0.0166   0.0627  -0.0273   0.00    0.0
2121 180750.000  -3120042.6560   4084615.1134   3764027.0305   6   9   0.0368   0.0875   0.0520  -0.0166   0.0626  -0.0273   0.00    0.0
2121 180780.000  -3120042.6566   4084615.1118   3764027.0305   6   9   0.0368   0.0873   0.0519  -0.0166   0.0625  -0.0272   0.00    0.0
2121 180810.000  -3120042.6545   4084615.1074   3764027.0273   6   9   0.0367   0.0871   0.0518  -0.0166   0.0624  -0.0272   0.00    0.0
2121 180840.000  -3120042.6528   4084615.1061   3764027.0258   6   9   0.0367   0.0868   0.0517  -0.0166   0.0622  -0.0272   0.00    0.0
2121 180870.000  -3120042.6540   4084615.1028   3764027.0263   6   9   0.0365   0.0864   0.0514  -0.0164   0.0619  -0.0270   0.00    0.0
2121 180900.000  -3120042.6524   4084615.0974   3764027.0242   6   9   0.0362   0.0852   0.0507  -0.0155   0.0610  -0.0265   0.00    0.0
2121 180930.000  -3120042.6535   4084615.1050   3764027.0280   6   9   0.0361   0.0850   0.0506  -0.0155   0.0608  -0.0265   0.00    0.0
2121 180960.000  -3120042.6534   4084615.1091   3764027.0302   6   9   0.0360   0.0848   0.0505  -0.0155   0.0607  -0.0265   0.00    0.0
2121 180990.000  -3120042.6530   4084615.1101   3764027.0309   6   9   0.0360   0.0846   0.0504  -0.0156   0.0606  -0.0264   0.00    0.0
2121 181020.000  -3120042.6527   4084615.1172   3764027.0345   6   9   0.0359   0.0845   0.0503  -0.0156   0.0605  -0.0264   0.00    0.0
2121 181050.000  -3120042.6522   4084615.1139   3764027.0328   6   9   0.0359   0.0843   0.0503  -0.0156   0.0604  -0.0264   0.00    0.0
2121 181080.000  -3120042.6507   4084615.1115   3764027.0318   6   9   0.0358   0.0841   0.0502  -0.0156   0.0603  -0.0264   0.00    0.0
2121 181110.000  -3120042.6505   4084615.1127   3764027.0322   6   9   0.0358   0.0840   0.0501  -0.0156   0.0601  -0.0264   0.00    0.0
2121 181140.000  -3120042.6524   4084615.1161   3764027.0363   6   9   0.0357   0.0838   0.0500  -0.0157   0.0600  -0.0263   0.00    0.0
2121 181170.000  -3120042.6526   4084615.1158   3764027.0381   6   9   0.0356   0.0835   0.0499  -0.0158   0.0599  -0.0263   0.00    0.0
2121 181200.000  -3120042.6527   4084615.1124   3764027.0389   6   8   0.0354   0.0828   0.0497  -0.0162   0.0595  -0.0263   0.00    0.0
2121 181230.000  -3120042.6529   4084615.1143   3764027.0402   6   8   0.0353   0.0826   0.0496  -0.0163   0.0594  -0.0263   0.00    0.0
2121 181260.000  -3120042.6530   4084615.1150   3764027.0404   6   8   0.0353   0.0825   0.0495  -0.0163   0.0593  -0.0263   0.00    0.0
2121 181290.000  -3120042.6543   4084615.1147   3764027.0415   6   8   0.0352   0.0823   0.0494  -0.0164   0.0592  -0.0263   0.00    0.0
2121 181320.000  -3120042.6542   4084615.1152   3764027.0421   6   8   0.0352   0.0822   0.0494  -0.0165   0.0591  -0.0263   0.00    0.0
2121 181350.000  -3120042.6556   4084615.1184   3764027.0438   6   8   0.0351   0.0820   0.0493  -0.0165   0.0590  -0.0263   0.00    0.0
2121 181380.000  -3120042.6577   4084615.1185   3764027.0449   6   8   0.0351   0.0819   0.0493  -0.0166   0.0589  -0.0263   0.00    0.0
2121 181410.000  -3120042.6578   4084615.1200   3764027.0457   6   8   0.0351   0.0817   0.0492  -0.0166   0.0588  -0.0263   0.00    0.0
2121 181440.000  -3120042.6598   4084615.1192   3764027.0472   6   7   0.0350   0.0816   0.0492  -0.0168   0.0587  -0.0263   0.00    0.0
2121 181470.000  -3120042.6610   4084615.1162   3764027.0471   6   7   0.0349   0.0813   0.0491  -0.0169   0.0586  -0.0264   0.00    0.0
2121 181500.000  -3120042.6629   4084615.1099   3764027.0463   6   7   0.0347   0.0806   0.0488  -0.0175   0.0582  -0.0264   0.00    0.0
2121 181530.000  -3120042.6625   4084615.1138   3764027.0483   6   7   0.0347   0.0804   0.0487  -0.0176   0.0581  -0.0264   0.00    0.0
2121 181560.000  -3120042.6618   4084615.1143   3764027.0486   6   7   0.0346   0.0803   0.0487  -0.0177   0.0580  -0.0264   0.00    0.0
2121 181590.000  -3120042.6612   4084615.1172   3764027.0509   6   7   0.0346   0.0802   0.0486  -0.0178   0.0580  -0.0264   0.00    0.0
2121 181620.000  -3120042.6609   4084615.1175   3764027.0514   6   7   0.0345   0.0800   0.0486  -0.0178   0.0579  -0.0265   0.00    0.0
2121 181650.000  -3120042.6621   4084615.1188   3764027.0524   6   7   0.0345   0.0799   0.0485  -0.0179   0.0578  -0.0265   0.00    0.0
2121 181680.000  -3120042.6624   4084615.1220   3764027.0534   6   7   0.0345   0.0798   0.0485  -0.0180   0.0578  -0.0265   0.00    0.0
2121 181710.000  -3120042.6625   4084615.1218   3764027.0535   6   7   0.0344   0.0797   0.0484  -0.0181   0.0577  -0.0265   0.00    0.0
2121 181740.000  -3120042.6639   4084615.1234   3764027.0548   6   7   0.0344   0.0795   0.0484  -0.0182   0.0576  -0.0265   0.00    0.0
2121 181770.000  -3120042.6655   4084615.1255   3764027.0574   6   7   0.0343   0.0793   0.0483  -0.0184   0.0575  -0.0265   0.00    0.0
2121 181800.000  -3120042.6652   4084615.1201   3764027.0552   6   7   0.0341   0.0785   0.0480  -0.0189   0.0570  -0.0266   0.00    0.0
2121 181830.000  -3120042.6653   4084615.1218   3764027.0562   6   7   0.0340   0.0783   0.0479  -0.0191   0.0569  -0.0266   0.00    0.0
2121 181860.000  -3120042.6649   4084615.1228   3764027.0572   6   7   0.0340   0.0782   0.0478  -0.0192   0.0568  -0.0266   0.00    0.0
2121 181890.000  -3120042.6665   4084615.1226   3764027.0580   6   7   0.0339   0.0780   0.0478  -0.0192   0.0568  -0.0266   0.00    0.0
2121 181920.000  -3120042.6675   4084615.1227   3764027.0582   6   7   0.0339   0.0779   0.0477  -0.0193   0.0567  -0.0267   0.00    0.0
2121 181950.000  -3120042.6685   4084615.1259   3764027.0598   6   7   0.0339   0.0778   0.0477  -0.0194   0.0566  -0.0267   0.00    0.0
2121 181980.000  -3120042.6686   4084615.1292   3764027.0615   6   7   0.0338   0.0777   0.0477  -0.0195   0.0566  -0.0267   0.00    0.0
2121 182010.000  -3120042.6685   4084615.1308   3764027.0625   6   7   0.0338   0.0775   0.0476  -0.0196   0.0565  -0.0267   0.00    0.0
2121 182040.000  -3120042.6697   4084615.1303   3764027.0635   6   7   0.0338   0.0774   0.0475  -0.0197   0.0564  -0.0267   0.00    0.0
2121 182070.000  -3120042.6716   4084615.1284   3764027.0648   6   7   0.0337   0.0771   0.0474  -0.0198   0.0562  -0.0267   0.00    0.0
2121 182100.000  -3120042.6726   4084615.1222   3764027.0634   6   7   0.0335   0.0763   0.0471  -0.0204   0.0558  -0.0268   0.00    0.0
2121 182130.000  -3120042.6732   4084615.1235   3764027.0654   6   7   0.0334   0.0761   0.0470  -0.0205   0.0557  -0.0268   0.00    0.0
2121 182160.000  -3120042.6735   4084615.1214   3764027.0650   6   7   0.0334   0.0760   0.0470  -0.0206   0.0556  -0.0269   0.00    0.0
2121 182190.000  -3120042.6740   4084615.1211   3764027.0654   6   7   0.0334   0.0759   0.0469  -0.0207   0.0555  -0.0269   0.00    0.0
2121 182220.000  -3120042.6735   4084615.1198   3764027.0647   6   7   0.0333   0.0757   0.0469  -0.0207   0.0554  -0.0269   0.00    0.0
2121 182250.000  -3120042.6729   4084615.1212   3764027.0660   6   7   0.0333   0.0756   0.0468  -0.0208   0.0554  -0.0269   0.00    0.0
2121 182280.000  -3120042.6736   4084615.1187   3764027.0654   6   7   0.0333   0.0755   0.0468  -0.0209   0.0553  -0.0269   0.00    0.0
2121 182310.000  -3120042.6734   4084615.1180   3764027.0655   6   8   0.0332   0.0754   0.0467  -0.0210   0.0552  -0.0269   0.00    0.0
2121 182340.000  -3120042.6753   4084615.1214   3764027.0688   6   8   0.0332   0.0752   0.0467  -0.0211   0.0551  -0.0269   0.00    0.0
2121 182370.000  -3120042.6758   4084615.1199   3764027.0689   6   8   0.0331   0.0749   0.0465  -0.0212   0.0550  -0.0270   0.00    0.0
2121 182400.000  -3120042.6762   4084615.1149   3764027.0670   6   8   0.0329   0.0741   0.0462  -0.0217   0.0545  -0.0270   0.00    0.0
2121 182430.000  -3120042.6753   4084615.1159   3764027.0671   6   8   0.0329   0.0739   0.0461  -0.0218   0.0543  -0.0271   0.00    0.0
2121 182460.000  -3120042.6748   4084615.1170   3764027.0675   6   8   0.0328   0.0738   0.0460  -0.0219   0.0543  -0.0271   0.00    0.0
2121 182490.000  -3120042.6751   4084615.1156   3764027.0668   6   8   0.0328   0.0736   0.0460  -0.0219   0.0542  -0.0271   0.00    0.0
2121 182520.000  -3120042.6751   4084615.1130   3764027.0654   6   8   0.0328   0.0735   0.0459  -0.0220   0.0541  -0.0271   0.00    0.0
2121 182550.000  -3120042.6747   4084615.1142   3764027.0654   6   8   0.0327   0.0734   0.0459  -0.0220   0.0540  -0.0271   0.00    0.0
2121 182580.000  -3120042.6748   4084615.1151   3764027.0657   6   8   0.0327   0.0732   0.0458  -0.0221   0.0539  -0.0271   0.00    0.0
2121 182610.000  -3120042.6749   4084615.1161   3764027.0670   6   8   0.0327   0.0731   0.0458  -0.0222   0.0539  -0.0271   0.00    0.0
2121 182640.000  -3120042.6755   4084615.1174   3764027.0676   6   8   0.0326   0.0729   0.0457  -0.0223   0.0538  -0.0271   0.00    0.0
2121 182670.000  -3120042.6761   4084615.1171   3764027.0686   6   8   0.0326   0.0727   0.0456  -0.0224   0.0536  -0.0272   0.00    0.0
2121 182700.000  -3120042.6773   4084615.1118   3764027.0665   6   8   0.0324   0.0719   0.0452  -0.0228   0.0531  -0.0272   0.00    0.0
2121 182730.000  -3120042.6774   4084615.1112   3764027.0661   6   8   0.0324   0.0716   0.0451  -0.0229   0.0530  -0.0273   0.00    0.0
2121 182760.000  -3120042.6778   4084615.1141   3764027.0674   6   8   0.0323   0.0715   0.0450  -0.0230   0.0529  -0.0273   0.00    0.0
2121 182790.000  -3120042.6782   4084615.1130   3764027.0667   6   8   0.0323   0.0714   0.0450  -0.0231   0.0528  -0.0273   0.00    0.0
2121 182820.000  -3120042.6787   4084615.1127   3764027.0666   6   8   0.0323   0.0712   0.0449  -0.0231   0.0527  -0.0273   0.00    0.0
2121 182850.000  -3120042.6791   4084615.1109   3764027.0665   6   8   0.0322   0.0711   0.0449  -0.0232   0.0526  -0.0273   0.00    0.0
2121 182880.000  -3120042.6785   4084615.1095   3764027.0653   6   8   0.0322   0.0710   0.0448  -0.0232   0.0526  -0.0273   0.00    0.0
2121 182910.000  -3120042.6790   4084615.1062   3764027.0633   6   8   0.0322   0.0708   0.0448  -0.0233   0.0525  -0.0273   0.00    0.0
2121 182940.000  -3120042.6803   4084615.1039   3764027.0634   6   8   0.0321   0.0707   0.0447  -0.0234   0.0524  -0.0273   0.00    0.0
2121 182970.000  -3120042.6814   4084615.1011   3764027.0630   6   8   0.0321   0.0704   0.0445  -0.0235   0.0522  -0.0273   0.00    0.0
2121 183000.000  -3120042.6823   4084615.0969   3764027.0616   6   8   0.0318   0.0695   0.0441  -0.0237   0.0516  -0.0273   0.00    0.0
2121 183030.000  -3120042.6817   4084615.0981   3764027.0622   6   8   0.0318   0.0693   0.0440  -0.0238   0.0515  -0.0273   0.00    0.0
2121 183060.000  -3120042.6818   4084615.0936   3764027.0608   6   8   0.0318   0.0691   0.0439  -0.0239   0.0514  -0.0273   0.00    0.0
2121 183090.000  -3120042.6825   4084615.0896   3764027.0591   6   8   0.0317   0.0690   0.0439  -0.0239   0.0513  -0.0273   0.00    0.0
2121 183120.000  -3120042.6822   4084615.0896   3764027.0588   6   8   0.0317   0.0689   0.0438  -0.0240   0.0512  -0.0273   0.00    0.0
2121 183150.000  -3120042.6819   4084615.0882   3764027.0577   6   8   0.0317   0.0688   0.0438  -0.0240   0.0511  -0.0273   0.00    0.0
2121 183180.000  -3120042.6819   4084615.0851   3764027.0565   6   8   0.0316   0.0686   0.0437  -0.0241   0.0511  -0.0273   0.00    0.0
2121 183210.000  -3120042.6829   4084615.0813   3764027.0561   6   8   0.0316   0.0685   0.0436  -0.0241   0.0510  -0.0273   0.00    0.0
2121 183240.000  -3120042.6838   4084615.0797   3764027.0572   6   8   0.0316   0.0683   0.0435  -0.0242   0.0509  -0.0273   0.00    0.0
2121 183270.000  -3120042.6843   4084615.0744   3764027.0559   6   8   0.0315   0.0681   0.0434  -0.0242   0.0507  -0.0273   0.00    0.0
2121 183300.000  -3120042.6842   4084615.0711   3764027.0525   6   8   0.0312   0.0672   0.0429  -0.0243   0.0500  -0.0271   0.00    0.0
2121 183330.000  -3120042.6850   4084615.0741   3764027.0545   6   8   0.0312   0.0670   0.0427  -0.0243   0.0499  -0.0271   0.00    0.0
2121 183360.000  -3120042.6846   4084615.0740   3764027.0538   6   8   0.0311   0.0668   0.0427  -0.0244   0.0498  -0.0271   0.00    0.0
2121 183390.000  -3120042.6847   4084615.0734   3764027.0536   6   8   0.0311   0.0667   0.0426  -0.0244   0.0497  -0.0271   0.00    0.0
2121 183420.000  -3120042.6841   4084615.0731   3764027.0532   6   8   0.0311   0.0666   0.0426  -0.0245   0.0496  -0.0271   0.00    0.0
2121 183450.000  -3120042.6836   4084615.0714   3764027.0516   6   8   0.0310   0.0664   0.0425  -0.0245   0.0496  -0.0271   0.00    0.0
2121 183480.000  -3120042.6836   4084615.0710   3764027.0520   6   8   0.0310   0.0663   0.0424  -0.0245   0.0495  -0.0271   0.00    0.0
2121 183510.000  -3120042.6843   4084615.0710   3764027.0530   6   8   0.0310   0.0662   0.0424  -0.0246   0.0494  -0.0271   0.00    0.0
2121 183540.000  -3120042.6849   4084615.0687   3764027.0524   6   8   0.0309   0.0660   0.0423  -0.0246   0.0493  -0.0271   0.00    0.0
2121 183570.000  -3120042.6851   4084615.0663   3764027.0526   6   8   0.0309   0.0658   0.0421  -0.0247   0.0491  -0.0271   0.00    0.0
2121 183600.000  -3120042.6852   4084615.0621   3764027.0496   6   8   0.0306   0.0649   0.0416  -0.0246   0.0484  -0.0269   0.00    0.0
2121 183630.000  -3120042.6846   4084615.0618   3764027.0497   6   8   0.0305   0.0647   0.0415  -0.0247   0.0483  -0.0269   0.00    0.0
2121 183660.000  -3120042.6842   4084615.0606   3764027.0486   6   8   0.0305   0.0645   0.0414  -0.0247   0.0482  -0.0269   0.00    0.0
2121 183690.000  -3120042.6847   4084615.0627   3764027.0503   6   8   0.0305   0.0644   0.0413  -0.0247   0.0481  -0.0269   0.00    0.0
2121 183720.000  -3120042.6848   4084615.0605   3764027.0488   6   8   0.0304   0.0643   0.0413  -0.0248   0.0480  -0.0269   0.00    0.0
2121 183750.000  -3120042.6850   4084615.0602   3764027.0488   6   8   0.0304   0.0642   0.0412  -0.0248   0.0480  -0.0269   0.00    0.0
2121 183780.000  -3120042.6848   4084615.0606   3764027.0488   6   8   0.0304   0.0641   0.0411  -0.0248   0.0479  -0.0269   0.00    0.0
2121 183810.000  -3120042.6847   4084615.0632   3764027.0497   6   8   0.0303   0.0639   0.0411  -0.0249   0.0478  -0.0269   0.00    0.0
2121 183840.000  -3120042.6863   4084615.0607   3764027.0494   6   8   0.0303   0.0638   0.0410  -0.0249   0.0477  -0.0269   0.00    0.0
2121 183870.000  -3120042.6864   4084615.0594   3764027.0490   6   8   0.0303   0.0635   0.0409  -0.0250   0.0475  -0.0268   0.00    0.0
2121 183900.000  -3120042.6867   4084615.0535   3764027.0457   6   8   0.0301   0.0627   0.0404  -0.0251   0.0470  -0.0268   0.00    0.0
2121 183930.000  -3120042.6858   4084615.0554   3764027.0456   6   8   0.0301   0.0625   0.0403  -0.0252   0.0468  -0.0268   0.00    0.0
2121 183960.000  -3120042.6858   4084615.0552   3764027.0457   6   8   0.0301   0.0624   0.0402  -0.0252   0.0467  -0.0268   0.00    0.0
2121 183990.000  -3120042.6855   4084615.0538   3764027.0445   6   8   0.0301   0.0623   0.0402  -0.0253   0.0467  -0.0268   0.00    0.0
2121 184020.000  -3120042.6853   4084615.0555   3764027.0447   6   8   0.0300   0.0622   0.0401  -0.0253   0.0466  -0.0268   0.00    0.0
2121 184050.000  -3120042.6861   4084615.0555   3764027.0448   6   8   0.0300   0.0621   0.0401  -0.0253   0.0465  -0.0268   0.00    0.0
2121 184080.000  -3120042.6865   4084615.0538   3764027.0440   6   8   0.0300   0.0620   0.0400  -0.0253   0.0465  -0.0268   0.00    0.0
2121 184110.000  -3120042.6855   4084615.0524   3764027.0428   6   8   0.0300   0.0619   0.0400  -0.0254   0.0464  -0.0268   0.00    0.0
2121 184140.000  -3120042.6855   4084615.0502   3764027.0413   6   8   0.0299   0.0617   0.0399  -0.0254   0.0463  -0.0268   0.00    0.0
2121 184170.000  -3120042.6850   4084615.0508   3764027.0410   6   8   0.0299   0.0615   0.0397  -0.0255   0.0461  -0.0268   0.00    0.0
2121 184200.000  -3120042.6854   4084615.0468   3764027.0387   6   8   0.0297   0.0607   0.0392  -0.0255   0.0455  -0.0267   0.00    0.0
2121 184230.000  -3120042.6841   4084615.0487   3764027.0390   6   8   0.0297   0.0605   0.0391  -0.0255   0.0454  -0.0267   0.00    0.0
2121 184260.000  -3120042.6841   4084615.0455   3764027.0373   6   8   0.0297   0.0604   0.0391  -0.0256   0.0453  -0.0266   0.00    0.0
2121 184290.000  -3120042.6835   4084615.0452   3764027.0364   6   8   0.0297   0.0603   0.0390  -0.0256   0.0452  -0.0266   0.00    0.0
2121 184320.000  -3120042.6834   4084615.0438   3764027.0360   6   8   0.0296   0.0602   0.0389  -0.0256   0.0452  -0.0266   0.00    0.0
2121 184350.000  -3120042.6833   4084615.0431   3764027.0355   6   8   0.0296   0.0601   0.0389  -0.0256   0.0451  -0.0266   0.00    0.0
2121 184380.000  -3120042.6831   4084615.0408   3764027.0342   6   8   0.0296   0.0600   0.0388  -0.0257   0.0450  -0.0266   0.00    0.0
2121 184410.000  -3120042.6827   4084615.0408   3764027.0337   6   8   0.0296   0.0599   0.0388  -0.0257   0.0450  -0.0266   0.00    0.0
2121 184440.000  -3120042.6822   4084615.0388   3764027.0319   6   8   0.0295   0.0597   0.0387  -0.0257   0.0449  -0.0266   0.00    0.0
2121 184470.000  -3120042.6817   4084615.0384   3764027.0318   6   8   0.0295   0.0595   0.0386  -0.0257   0.0447  -0.0266   0.00    0.0
2121 184500.000  -3120042.6812   4084615.0367   3764027.0295   6   8   0.0293   0.0586   0.0380  -0.0257   0.0440  -0.0264   0.00    0.0
2121 184530.000  -3120042.6811   4084615.0372   3764027.0293   6   8   0.0293   0.0584   0.0379  -0.0257   0.0439  -0.0264   0.00    0.0
2121 184560.000  -3120042.6803   4084615.0351   3764027.0271   6   8   0.0293   0.0583   0.0378  -0.0257   0.0438  -0.0264   0.00    0.0
2121 184590.000  -3120042.6803   4084615.0364   3764027.0277   6   8   0.0292   0.0582   0.0378  -0.0257   0.0437  -0.0264   0.00    0.0
2121 184620.000  -3120042.6795   4084615.0374   3764027.0273   6   8   0.0292   0.0581   0.0377  -0.0258   0.0437  -0.0264   0.00    0.0
2121 184650.000  -3120042.6783   4084615.0376   3764027.0264   6   8   0.0292   0.0580   0.0377  -0.0258   0.0436  -0.0264   0.00    0.0
2121 184680.000  -3120042.6778   4084615.0349   3764027.0241   6   8   0.0292   0.0579   0.0376  -0.0258   0.0435  -0.0264   0.00    0.0
2121 184710.000  -3120042.6784   4084615.0336   3764027.0238   6   8   0.0292   0.0578   0.0376  -0.0258   0.0435  -0.0264   0.00    0.0
2121 184740.000  -3120042.6788   4084615.0345   3764027.0249   6   8   0.0291   0.0577   0.0375  -0.0259   0.0434  -0.0264   0.00    0.0
2121 184770.000  -3120042.6786   4084615.0328   3764027.0235   6   8   0.0291   0.0576   0.0374  -0.0259   0.0433  -0.0263   0.00    0.0
2121 184800.000  -3120042.6785   4084615.0319   3764027.0232   6   8   0.0290   0.0572   0.0372  -0.0260   0.0431  -0.0263   0.00    0.0
2121 184830.000  -3120042.6777   4084615.0301   3764027.0213   6   8   0.0289   0.0571   0.0372  -0.0260   0.0430  -0.0263   0.00    0.0
2121 184860.000  -3120042.6776   4084615.0298   3764027.0210   6   8   0.0289   0.0570   0.0371  -0.0260   0.0429  -0.0263   0.00    0.0
2121 184890.000  -3120042.6777   4084615.0286   3764027.0201   6   8   0.0289   0.0569   0.0371  -0.0260   0.0429  -0.0263   0.00    0.0
2121 184920.000  -3120042.6773   4084615.0282   3764027.0190   6   8   0.0289   0.0568   0.0370  -0.0261   0.0428  -0.0263   0.00    0.0
2121 184950.000  -3120042.6771   4084615.0272   3764027.0178   6   8   0.0288   0.0568   0.0370  -0.0261   0.0428  -0.0262   0.00    0.0
2121 184980.000  -3120042.6770   4084615.0265   3764027.0172   6   8   0.0288   0.0567   0.0369  -0.0261   0.0427  -0.0262   0.00    0.0
2121 185010.000  -3120042.6776   4084615.0278   3764027.0180   6   8   0.0288   0.0566   0.0369  -0.0261   0.0427  -0.0262   0.00    0.0
2121 185040.000  -3120042.6781   4084615.0281   3764027.0188   6   8   0.0288   0.0565   0.0368  -0.0261   0.0426  -0.0262   0.00    0.0
2121 185070.000  -3120042.6782   4084615.0297   3764027.0203   6   8   0.0287   0.0563   0.0368  -0.0262   0.0425  -0.0262   0.00    0.0
2121 185100.000  -3120042.6788   4084615.0279   3764027.0196   6   8   0.0286   0.0560   0.0365  -0.0262   0.0423  -0.0261   0.00    0.0
2121 185130.000  -3120042.6782   4084615.0274   3764027.0190   6   8   0.0286   0.0558   0.0365  -0.0262   0.0422  -0.0261   0.00    0.0
2121 185160.000  -3120042.6779   4084615.0305   3764027.0205   6   8   0.0285   0.0557   0.0364  -0.0263   0.0421  -0.0261   0.00    0.0
2121 185190.000  -3120042.6775   4084615.0294   3764027.0196   6   8   0.0285   0.0557   0.0364  -0.0263   0.0421  -0.0261   0.00    0.0
2121 185220.000  -3120042.6770   4084615.0307   3764027.0194   6   8   0.0285   0.0556   0.0363  -0.0263   0.0420  -0.0261   0.00    0.0
2121 185250.000  -3120042.6771   4084615.0309   3764027.0192   6   8   0.0285   0.0555   0.0363  -0.0263   0.0420  -0.0261   0.00    0.0
2121 185280.000  -3120042.6765   4084615.0300   3764027.0181   6   8   0.0284   0.0554   0.0363  -0.0263   0.0419  -0.0261   0.00    0.0
2121 185310.000  -3120042.6774   4084615.0284   3764027.0180   6   8   0.0284   0.0554   0.0362  -0.0263   0.0419  -0.0261   0.00    0.0
2121 185340.000  -3120042.6782   4084615.0270   3764027.0177   6   8   0.0284   0.0553   0.0362  -0.0264   0.0418  -0.0261   0.00    0.0
2121 185370.000  -3120042.6790   4084615.0267   3764027.0180   6   8   0.0284   0.0551   0.0361  -0.0264   0.0417  -0.0261   0.00    0.0
2121 185400.000  -3120042.6800   4084615.0253   3764027.0183   6   8   0.0282   0.0547   0.0359  -0.0264   0.0415  -0.0260   0.00    0.0
2121 185430.000  -3120042.6802   4084615.0239   3764027.0173   6   8   0.0282   0.0546   0.0358  -0.0264   0.0414  -0.0260   0.00    0.0
2121 185460.000  -3120042.6808   4084615.0266   3764027.0190   6   8   0.0282   0.0545   0.0358  -0.0264   0.0413  -0.0260   0.00    0.0
2121 185490.000  -3120042.6808   4084615.0277   3764027.0194   6   8   0.0282   0.0545   0.0357  -0.0264   0.0413  -0.0260   0.00    0.0
2121 185520.000  -3120042.6808   4084615.0281   3764027.0195   6   8   0.0281   0.0544   0.0357  -0.0264   0.0413  -0.0259   0.00    0.0
2121 185550.000  -3120042.6805   4084615.0308   3764027.0210   6   8   0.0281   0.0543   0.0357  -0.0265   0.0412  -0.0259   0.00    0.0
2121 185580.000  -3120042.6806   4084615.0326   3764027.0214   6   8   0.0281   0.0543   0.0356  -0.0265   0.0412  -0.0259   0.00    0.0
2121 185610.000  -3120042.6802   4084615.0331   3764027.0212   6   8   0.0281   0.0542   0.0356  -0.0265   0.0411  -0.0259   0.00    0.0
2121 185640.000  -3120042.6809   4084615.0312   3764027.0211   6   8   0.0281   0.0541   0.0356  -0.0265   0.0411  -0.0259   0.00    0.0
2121 185670.000  -3120042.6823   4084615.0323   3764027.0225   6   8   0.0280   0.0540   0.0355  -0.0265   0.0410  -0.0259   0.00    0.0
2121 185700.000  -3120042.6834   4084615.0329   3764027.0234   6   8   0.0279   0.0535   0.0352  -0.0265   0.0407  -0.0258   0.00    0.0
2121 185730.000  -3120042.6827   4084615.0328   3764027.0227   6   8   0.0279   0.0534   0.0352  -0.0265   0.0406  -0.0258   0.00    0.0
2121 185760.000  -3120042.6836   4084615.0348   3764027.0247   6   8   0.0278   0.0533   0.0351  -0.0265   0.0406  -0.0258   0.00    0.0
2121 185790.000  -3120042.6835   4084615.0342   3764027.0242   6   8   0.0278   0.0533   0.0351  -0.0265   0.0405  -0.0258   0.00    0.0
2121 185820.000  -3120042.6840   4084615.0340   3764027.0243   6   8   0.0278   0.0532   0.0351  -0.0265   0.0405  -0.0258   0.00    0.0
2121 185850.000  -3120042.6841   4084615.0341   3764027.0239   6   8   0.0278   0.0532   0.0351  -0.0265   0.0404  -0.0258   0.00    0.0
