%  GPST              x-ecef(m)      y-ecef(m)      z-ecef(m)   Q  ns   sdx(m)   sdy(m)   sdz(m)  sdxy(m)  sdyz(m)  sdzx(m) age(s)  ratio
2121 172800.000  -2448551.6270  -4668099.8089   3582741.9975   6   8   2.2600   2.6973   2.6520   2.1883  -2.3581  -1.9911   0.00    0.0
2121 172830.000  -2448552.0945  -4668100.3689   3582742.3929   6   8   1.4544   1.7133   1.6418   1.3586  -1.4399  -1.2021   0.00    0.0
2121 172860.000  -2448552.2506  -4668100.5307   3582742.4400   6   8   1.1582   1.3650   1.2937   1.0723  -1.1335  -0.9408   0.00    0.0
2121 172890.000  -2448552.3201  -4668100.5794   3582742.4768   6   8   0.9927   1.1736   1.1045   0.9165  -0.9691  -0.8007   0.00    0.0
2121 172920.000  -2448552.3179  -4668100.5854   3582742.4570   6   8   0.8840   1.0490   0.9822   0.8156  -0.8635  -0.7107   0.00    0.0
2121 172950.000  -2448552.3025  -4668100.5853   3582742.4137   6   8   0.8060   0.9602   0.8952   0.7438  -0.7887  -0.6468   0.00    0.0
2121 172980.000  -2448552.3646  -4668100.6881   3582742.4874   6   8   0.7285   0.8705   0.8023   0.6671  -0.7075  -0.5760   0.00    0.0
2121 173010.000  -2448552.3646  -4668100.7138   3582742.4691   6   8   0.6506   0.7805   0.7045   0.5861  -0.6223  -0.5001   0.00    0.0
2121 173040.000  -2448552.3550  -4668100.6788   3582742.2715   6   8   0.5725   0.6925   0.6047   0.5025  -0.5366  -0.4229   0.00    0.0
2121 173070.000  -2448552.3664  -4668100.6625   3582742.1058   6   8   0.4934   0.6059   0.5045   0.4151  -0.4513  -0.3459   0.00    0.0
2121 173100.000  -2448552.1807  -4668100.4076   3582741.8101   6   8   0.4160   0.5195   0.4072   0.3224  -0.3644  -0.2674   0.00    0.0
2121 173130.000  -2448552.1435  -4668100.3557   3582741.7613   6   8   0.4004   0.5025   0.3949   0.3131  -0.3544  -0.2599   0.00    0.0
2121 173160.000  -2448552.1144  -4668100.3378   3582741.7588   6   8   0.3891   0.4904   0.3872   0.3083  -0.3486  -0.2558   0.00    0.0
2121 173190.000  -2448552.0847  -4668100.3142   3582741.7459   6   8   0.3795   0.4802   0.3808   0.3045  -0.3439  -0.2527   0.00    0.0
2121 173220.000  -2448552.0618  -4668100.2926   3582741.7362   6   8   0.3710   0.4711   0.3752   0.3011  -0.3398  -0.2498   0.00    0.0
2121 173250.000  -2448552.0418  -4668100.2691   3582741.7173   6   8   0.3633   0.4630   0.3701   0.2979  -0.3360  -0.2472   0.00    0.0
2121 173280.000  -2448552.0310  -4668100.2421   3582741.6816   6   8   0.3544   0.4535   0.3630   0.2926  -0.3306  -0.2430   0.00    0.0
2121 173310.000  -2448552.0361  -4668100.2302   3582741.6527   6   8   0.3435   0.4417   0.3529   0.2843  -0.3225  -0.2363   0.00    0.0
2121 173340.000  -2448552.0671  -4668100.2450   3582741.6369   6   8   0.3291   0.4261   0.3376   0.2709  -0.3102  -0.2256   0.00    0.0
2121 173370.000  -2448552.0723  -4668100.2593   3582741.6416   6   8   0.3080   0.4029   0.3130   0.2478  -0.2895  -0.2074   0.00    0.0
2121 173400.000  -2448551.8604  -4668100.0384   3582741.5133   6   8   0.2723   0.3600   0.2676   0.1996  -0.2472  -0.1700   0.00    0.0
2121 173430.000  -2448551.8258  -4668099.9894   3582741.4936   6   8   0.2655   0.3519   0.2616   0.1946  -0.2418  -0.1661   0.00    0.0
2121 173460.000  -2448551.8130  -4668099.9693   3582741.4929   6   8   0.2609   0.3466   0.2583   0.1928  -0.2391  -0.1643   0.00    0.0
2121 173490.000  -2448551.8018  -4668099.9469   3582741.4882   6   8   0.2570   0.3421   0.2557   0.1916  -0.2369  -0.1631   0.00    0.0
2121 173520.000  -2448551.7906  -4668099.9310   3582741.4914   6   8   0.2535   0.3381   0.2534   0.1906  -0.2351  -0.1620   0.00    0.0
2121 173550.000  -2448551.7817  -4668099.9191   3582741.4947   6   8   0.2503   0.3344   0.2513   0.1898  -0.2334  -0.1610   0.00    0.0
2121 173580.000  -2448551.7809  -4668099.9207   3582741.5042   6   8   0.2466   0.3301   0.2485   0.1881  -0.2311  -0.1595   0.00    0.0
2121 173610.000  -2448551.7942  -4668099.9393   3582741.5201   6   8   0.2420   0.3247   0.2444   0.1850  -0.2276  -0.1570   0.00    0.0
2121 173640.000  -2448551.8258  -4668099.9756   3582741.5517   6   7   0.2360   0.3180   0.2383   0.1798  -0.2228  -0.1531   0.00    0.0
2121 173670.000  -2448551.8406  -4668099.9807   3582741.5443   6   7   0.2265   0.3073   0.2270   0.1692  -0.2137  -0.1454   0.00    0.0
2121 173700.000  -2448551.6457  -4668099.7085   3582741.3749   6   7   0.2058   0.2835   0.2006   0.1401  -0.1904  -0.1250   0.00    0.0
2121 173730.000  -2448551.6127  -4668099.6532   3582741.3362   6   7   0.2019   0.2791   0.1971   0.1373  -0.1875  -0.1230   0.00    0.0
2121 173760.000  -2448551.5960  -4668099.6218   3582741.3171   6   7   0.1995   0.2763   0.1953   0.1365  -0.1861  -0.1221   0.00    0.0
2121 173790.000  -2448551.5820  -4668099.5938   3582741.2973   6   7   0.1974   0.2739   0.1939   0.1362  -0.1850  -0.1215   0.00    0.0
2121 173820.000  -2448551.5724  -4668099.5703   3582741.2853   6   7   0.1955   0.2717   0.1927   0.1359  -0.1840  -0.1210   0.00    0.0
2121 173850.000  -2448551.5644  -4668099.5476   3582741.2800   6   7   0.1938   0.2697   0.1916   0.1358  -0.1832  -0.1206   0.00    0.0
2121 173880.000  -2448551.5616  -4668099.5279   3582741.2729   6   7   0.1918   0.2674   0.1902   0.1353  -0.1821  -0.1200   0.00    0.0
2121 173910.000  -2448551.5673  -4668099.5221   3582741.2724   6   7   0.1894   0.2647   0.1883   0.1342  -0.1806  -0.1190   0.00    0.0
2121 173940.000  -2448551.5781  -4668099.5326   3582741.2778   6   7   0.1862   0.2610   0.1852   0.1319  -0.1783  -0.1173   0.00    0.0
2121 173970.000  -2448551.5715  -4668099.5405   3582741.2888   6   7   0.1807   0.2551   0.1792   0.1262  -0.1736  -0.1136   0.00    0.0
2121 174000.000  -2448551.4272  -4668099.3608   3582741.2077   6   7   0.1668   0.2399   0.1627   0.1066  -0.1599  -0.1018   0.00    0.0
2121 174030.000  -2448551.4067  -4668099.3423   3582741.2138   6   7   0.1642   0.2370   0.1604   0.1048  -0.1579  -0.1005   0.00    0.0
2121 174060.000  -2448551.3977  -4668099.3337   3582741.2156   6   7   0.1626   0.2351   0.1592   0.1044  -0.1570  -0.1000   0.00    0.0
2121 174090.000  -2448551.3925  -4668099.3248   3582741.2156   6   7   0.1612   0.2335   0.1583   0.1043  -0.1562  -0.0997   0.00    0.0
2121 174120.000  -2448551.3878  -4668099.3185   3582741.2154   6   7   0.1600   0.2320   0.1575   0.1044  -0.1555  -0.0994   0.00    0.0
2121 174150.000  -2448551.3829  -4668099.3121   3582741.2148   6   7   0.1589   0.2307   0.1568   0.1044  -0.1549  -0.0991   0.00    0.0
2121 174180.000  -2448551.3808  -4668099.3079   3582741.2174   6   7   0.1576   0.2291   0.1560   0.1043  -0.1542  -0.0988   0.00    0.0
2121 174210.000  -2448551.3841  -4668099.3069   3582741.2269   6   7   0.1561   0.2274   0.1548   0.1039  -0.1533  -0.0983   0.00    0.0
2121 174240.000  -2448551.3878  -4668099.3102   3582741.2325   6   7   0.1541   0.2250   0.1530   0.1027  -0.1519  -0.0974   0.00    0.0
2121 174270.000  -2448551.3780  -4668099.2961   3582741.2247   6   7   0.1505   0.2212   0.1495   0.0993  -0.1492  -0.0952   0.00    0.0
2121 174300.000  -2448551.2675  -4668099.1714   3582741.1786   6   7   0.1407   0.2106   0.1385   0.0854  -0.1402  -0.0874   0.00    0.0
2121 174330.000  -2448551.2508  -4668099.1508   3582741.1718   6   7   0.1388   0.2085   0.1368   0.0841  -0.1388  -0.0864   0.00    0.0
2121 174360.000  -2448551.2454  -4668099.1405   3582741.1722   6   7   0.1376   0.2071   0.1359   0.0839  -0.1381  -0.0861   0.00    0.0
2121 174390.000  -2448551.2415  -4668099.1364   3582741.1751   6   7   0.1367   0.2059   0.1353   0.0839  -0.1375  -0.0858   0.00    0.0
2121 174420.000  -2448551.2359  -4668099.1324   3582741.1737   6   7   0.1358   0.2048   0.1347   0.0840  -0.1370  -0.0856   0.00    0.0
2121 174450.000  -2448551.2313  -4668099.1316   3582741.1745   6   7   0.1350   0.2038   0.1342   0.0841  -0.1365  -0.0854   0.00    0.0
2121 174480.000  -2448551.2291  -4668099.1365   3582741.1806   6   7   0.1341   0.2027   0.1336   0.0841  -0.1360  -0.0852   0.00    0.0
2121 174510.000  -2448551.2322  -4668099.1461   3582741.1901   6   7   0.1331   0.2014   0.1328   0.0839  -0.1353  -0.0849   0.00    0.0
2121 174540.000  -2448551.2398  -4668099.1622   3582741.2058   6   7   0.1317   0.1997   0.1316   0.0833  -0.1344  -0.0843   0.00    0.0
2121 174570.000  -2448551.2378  -4668099.1671   3582741.2143   6   7   0.1292   0.1970   0.1292   0.0811  -0.1325  -0.0828   0.00    0.0
2121 174600.000  -2448551.1491  -4668099.0683   3582741.1698   6   7   0.1218   0.1889   0.1212   0.0708  -0.1260  -0.0770   0.00    0.0
2121 174630.000  -2448551.1335  -4668099.0524   3582741.1559   6   7   0.1204   0.1872   0.1199   0.0698  -0.1249  -0.0763   0.00    0.0
2121 174660.000  -2448551.1284  -4668099.0443   3582741.1502   6   7   0.1195   0.1861   0.1193   0.0697  -0.1243  -0.0760   0.00    0.0
2121 174690.000  -2448551.1256  -4668099.0384   3582741.1484   6   7   0.1188   0.1851   0.1188   0.0697  -0.1238  -0.0758   0.00    0.0
2121 174720.000  -2448551.1216  -4668099.0336   3582741.1480   6   7   0.1181   0.1843   0.1183   0.0698  -0.1234  -0.0756   0.00    0.0
2121 174750.000  -2448551.1171  -4668099.0275   3582741.1467   6   7   0.1175   0.1835   0.1179   0.0699  -0.1230  -0.0755   0.00    0.0
2121 174780.000  -2448551.1130  -4668099.0232   3582741.1463   6   8   0.1168   0.1826   0.1174   0.0700  -0.1225  -0.0753   0.00    0.0
2121 174810.000  -2448551.1110  -4668099.0227   3582741.1475   6   8   0.1160   0.1815   0.1168   0.0699  -0.1220  -0.0750   0.00    0.0
2121 174840.000  -2448551.1109  -4668099.0251   3582741.1491   6   8   0.1149   0.1802   0.1159   0.0695  -0.1212  -0.0745   0.00    0.0
2121 174870.000  -2448551.1101  -4668099.0219   3582741.1443   6   8   0.1130   0.1779   0.1141   0.0679  -0.1197  -0.0733   0.00    0.0
2121 174900.000  -2448551.0590  -4668098.9674   3582741.1375   6   8   0.1071   0.1710   0.1076   0.0598  -0.1143  -0.0685   0.00    0.0
2121 174930.000  -2448551.0514  -4668098.9491   3582741.1314   6   8   0.1059   0.1695   0.1065   0.0589  -0.1133  -0.0678   0.00    0.0
2121 174960.000  -2448551.0456  -4668098.9382   3582741.1236   6   8   0.1052   0.1685   0.1059   0.0588  -0.1128  -0.0675   0.00    0.0
2121 174990.000  -2448551.0397  -4668098.9303   3582741.1169   6   8   0.1046   0.1677   0.1054   0.0588  -0.1123  -0.0673   0.00    0.0
2121 175020.000  -2448551.0349  -4668098.9244   3582741.1146   6   8   0.1040   0.1669   0.1050   0.0588  -0.1119  -0.0671   0.00    0.0
2121 175050.000  -2448551.0306  -4668098.9191   3582741.1143   6   8   0.1035   0.1662   0.1047   0.0589  -0.1115  -0.0669   0.00    0.0
2121 175080.000  -2448551.0269  -4668098.9144   3582741.1160   6   8   0.1029   0.1654   0.1042   0.0588  -0.1110  -0.0666   0.00    0.0
2121 175110.000  -2448551.0253  -4668098.9124   3582741.1199   6   8   0.1023   0.1644   0.1037   0.0587  -0.1105  -0.0663   0.00    0.0
2121 175140.000  -2448551.0234  -4668098.9178   3582741.1258   6   8   0.1014   0.1631   0.1028   0.0581  -0.1096  -0.0658   0.00    0.0
2121 175170.000  -2448551.0200  -4668098.9281   3582741.1298   6   8   0.0998   0.1606   0.1010   0.0563  -0.1078  -0.0645   0.00    0.0
2121 175200.000  -2448550.9810  -4668098.8985   3582741.1293   6   8   0.0947   0.1530   0.0948   0.0479  -0.1018  -0.0597   0.00    0.0
2121 175230.000  -2448550.9731  -4668098.8888   3582741.1305   6   8   0.0937   0.1514   0.0937   0.0469  -0.1006  -0.0589   0.00    0.0
2121 175260.000  -2448550.9682  -4668098.8808   3582741.1278   6   8   0.0931   0.1505   0.0932   0.0466  -0.1000  -0.0586   0.00    0.0
2121 175290.000  -2448550.9642  -4668098.8730   3582741.1251   6   8   0.0926   0.1497   0.0927   0.0466  -0.0996  -0.0584   0.00    0.0
2121 175320.000  -2448550.9616  -4668098.8670   3582741.1235   6   8   0.0921   0.1490   0.0924   0.0466  -0.0992  -0.0582   0.00    0.0
2121 175350.000  -2448550.9597  -4668098.8612   3582741.1222   6   8   0.0917   0.1484   0.0921   0.0466  -0.0988  -0.0580   0.00    0.0
2121 175380.000  -2448550.9587  -4668098.8557   3582741.1207   6   8   0.0913   0.1477   0.0917   0.0466  -0.0984  -0.0578   0.00    0.0
2121 175410.000  -2448550.9595  -4668098.8506   3582741.1194   6   8   0.0907   0.1468   0.0912   0.0464  -0.0979  -0.0575   0.00    0.0
2121 175440.000  -2448550.9622  -4668098.8479   3582741.1174   6   8   0.0900   0.1456   0.0904   0.0459  -0.0971  -0.0571   0.00    0.0
2121 175470.000  -2448550.9650  -4668098.8517   3582741.1199   6   8   0.0887   0.1433   0.0888   0.0441  -0.0953  -0.0559   0.00    0.0
2121 175500.000  -2448550.9328  -4668098.8407   3582741.1204   6   8   0.0845   0.1356   0.0831   0.0358  -0.0892  -0.0514   0.00    0.0
2121 175530.000  -2448550.9223  -4668098.8420   3582741.1165   6   8   0.0836   0.1341   0.0821   0.0347  -0.0881  -0.0507   0.00    0.0
2121 175560.000  -2448550.9173  -4668098.8391   3582741.1137   6   8   0.0831   0.1333   0.0816   0.0344  -0.0876  -0.0504   0.00    0.0
2121 175590.000  -2448550.9126  -4668098.8362   3582741.1109   6   8   0.0827   0.1327   0.0812   0.0344  -0.0872  -0.0502   0.00    0.0
2121 175620.000  -2448550.9093  -4668098.8335   3582741.1092   6   8   0.0824   0.1321   0.0809   0.0344  -0.0868  -0.0500   0.00    0.0
2121 175650.000  -2448550.9074  -4668098.8300   3582741.1088   6   8   0.0820   0.1316   0.0807   0.0345  -0.0865  -0.0499   0.00    0.0
2121 175680.000  -2448550.9051  -4668098.8271   3582741.1079   6   8   0.0816   0.1309   0.0803   0.0345  -0.0862  -0.0497   0.00    0.0
2121 175710.000  -2448550.9034  -4668098.8249   3582741.1071   6   8   0.0812   0.1302   0.0799   0.0343  -0.0857  -0.0495   0.00    0.0
2121 175740.000  -2448550.9047  -4668098.8206   3582741.1066   6   8   0.0806   0.1292   0.0793   0.0339  -0.0850  -0.0491   0.00    0.0
2121 175770.000  -2448550.9088  -4668098.8167   3582741.1069   6   8   0.0796   0.1270   0.0779   0.0322  -0.0834  -0.0481   0.00    0.0
2121 175800.000  -2448550.8925  -4668098.8043   3582741.1137   6   8   0.0760   0.1199   0.0728   0.0237  -0.0777  -0.0442   0.00    0.0
2121 175830.000  -2448550.8922  -4668098.8008   3582741.1178   6   8   0.0753   0.1185   0.0720   0.0226  -0.0767  -0.0436   0.00    0.0
2121 175860.000  -2448550.8930  -4668098.7981   3582741.1199   6   8   0.0749   0.1178   0.0716   0.0224  -0.0763  -0.0434   0.00    0.0
2121 175890.000  -2448550.8933  -4668098.7947   3582741.1211   6   8   0.0745   0.1173   0.0713   0.0224  -0.0760  -0.0432   0.00    0.0
2121 175920.000  -2448550.8923  -4668098.7913   3582741.1215   6   8   0.0742   0.1168   0.0710   0.0225  -0.0757  -0.0431   0.00    0.0
2121 175950.000  -2448550.8913  -4668098.7890   3582741.1224   6   8   0.0740   0.1164   0.0708   0.0226  -0.0754  -0.0430   0.00    0.0
2121 175980.000  -2448550.8912  -4668098.7847   3582741.1231   6   8   0.0737   0.1159   0.0705   0.0226  -0.0752  -0.0428   0.00    0.0
2121 176010.000  -2448550.8910  -4668098.7802   3582741.1236   6   8   0.0733   0.1153   0.0702   0.0226  -0.0748  -0.0426   0.00    0.0
2121 176040.000  -2448550.8912  -4668098.7784   3582741.1258   6   8   0.0728   0.1145   0.0697   0.0223  -0.0742  -0.0423   0.00    0.0
2121 176070.000  -2448550.8890  -4668098.7777   3582741.1284   6   8   0.0720   0.1128   0.0687   0.0208  -0.0730  -0.0416   0.00    0.0
2121 176100.000  -2448550.8622  -4668098.7898   3582741.1321   6   8   0.0691   0.1069   0.0646   0.0118  -0.0685  -0.0385   0.00    0.0
2121 176130.000  -2448550.8559  -4668098.7903   3582741.1308   6   8   0.0685   0.1058   0.0639   0.0103  -0.0677  -0.0380   0.00    0.0
2121 176160.000  -2448550.8521  -4668098.7895   3582741.1298   6   8   0.0682   0.1052   0.0636   0.0102  -0.0673  -0.0378   0.00    0.0
2121 176190.000  -2448550.8490  -4668098.7883   3582741.1288   6   8   0.0679   0.1048   0.0634   0.0103  -0.0671  -0.0377   0.00    0.0
2121 176220.000  -2448550.8461  -4668098.7871   3582741.1280   6   8   0.0677   0.1044   0.0632   0.0105  -0.0669  -0.0376   0.00    0.0
2121 176250.000  -2448550.8437  -4668098.7867   3582741.1277   6   8   0.0674   0.1040   0.0630   0.0108  -0.0667  -0.0375   0.00    0.0
2121 176280.000  -2448550.8414  -4668098.7875   3582741.1281   6   8   0.0672   0.1036   0.0628   0.0110  -0.0664  -0.0374   0.00    0.0
2121 176310.000  -2448550.8391  -4668098.7880   3582741.1290   6   8   0.0669   0.1031   0.0625   0.0110  -0.0661  -0.0373   0.00    0.0
2121 176340.000  -2448550.8378  -4668098.7877   3582741.1293   6   8   0.0665   0.1024   0.0621   0.0108  -0.0657  -0.0370   0.00    0.0
2121 176370.000  -2448550.8361  -4668098.7896   3582741.1302   6   8   0.0658   0.1011   0.0613   0.0089  -0.0648  -0.0365   0.00    0.0
2121 176400.000  -2448550.8219  -4668098.7985   3582741.1383   6   8   0.0634   0.0962   0.0581  -0.0101  -0.0612  -0.0341   0.00    0.0
2121 176430.000  -2448550.8178  -4668098.8038   3582741.1415   6   8   0.0629   0.0953   0.0576  -0.0110  -0.0605  -0.0337   0.00    0.0
2121 176460.000  -2448550.8147  -4668098.8038   3582741.1419   6   8   0.0626   0.0948   0.0573  -0.0110  -0.0602  -0.0335   0.00    0.0
2121 176490.000  -2448550.8130  -4668098.8011   3582741.1411   6   8   0.0624   0.0944   0.0571  -0.0108  -0.0600  -0.0334   0.00    0.0
2121 176520.000  -2448550.8120  -4668098.7979   3582741.1409   6   8   0.0622   0.0941   0.0569  -0.0106  -0.0598  -0.0333   0.00    0.0
2121 176550.000  -2448550.8115  -4668098.7933   3582741.1403   6   8   0.0620   0.0938   0.0568  -0.0104  -0.0597  -0.0333   0.00    0.0
2121 176580.000  -2448550.8114  -4668098.7849   3582741.1378   6   8   0.0618   0.0935   0.0566  -0.0101  -0.0595  -0.0332   0.00    0.0
2121 176610.000  -2448550.8118  -4668098.7750   3582741.1346   6   8   0.0615   0.0931   0.0564  -0.0100  -0.0593  -0.0331   0.00    0.0
2121 176640.000  -2448550.8125  -4668098.7661   3582741.1317   6   8   0.0612   0.0925   0.0561  -0.0101  -0.0589  -0.0329   0.00    0.0
2121 176670.000  -2448550.8098  -4668098.7658   3582741.1312   6   8   0.0606   0.0913   0.0554  -0.0111  -0.0581  -0.0324   0.00    0.0
2121 176700.000  -2448550.7917  -4668098.7776   3582741.1378   6   8   0.0586   0.0872   0.0527  -0.0155  -0.0551  -0.0304   0.00    0.0
2121 176730.000  -2448550.7881  -4668098.7763   3582741.1371   6   8   0.0582   0.0864   0.0523  -0.0159  -0.0546  -0.0301   0.00    0.0
2121 176760.000  -2448550.7866  -4668098.7733   3582741.1359   6   8   0.0580   0.0859   0.0520  -0.0159  -0.0543  -0.0300   0.00    0.0
2121 176790.000  -2448550.7852  -4668098.7728   3582741.1357   6   8   0.0578   0.0856   0.0519  -0.0157  -0.0541  -0.0299   0.00    0.0
2121 176820.000  -2448550.7841  -4668098.7733   3582741.1365   6   8   0.0576   0.0854   0.0517  -0.0156  -0.0540  -0.0298   0.00    0.0
2121 176850.000  -2448550.7835  -4668098.7729   3582741.1370   6   8   0.0574   0.0851   0.0516  -0.0154  -0.0539  -0.0298   0.00    0.0
2121 176880.000  -2448550.7833  -4668098.7712   3582741.1367   6   8   0.0572   0.0848   0.0515  -0.0153  -0.0537  -0.0297   0.00    0.0
2121 176910.000  -2448550.7830  -4668098.7712   3582741.1369   6   8   0.0570   0.0845   0.0513  -0.0152  -0.0535  -0.0296   0.00    0.0
2121 176940.000  -2448550.7829  -4668098.7739   3582741.1378   6   8   0.0567   0.0840   0.0510  -0.0152  -0.0532  -0.0294   0.00    0.0
2121 176970.000  -2448550.7819  -4668098.7801   3582741.1416   6   8   0.0563   0.0830   0.0504  -0.0156  -0.0525  -0.0290   0.00    0.0
2121 177000.000  -2448550.7683  -4668098.8027   3582741.1540   6   8   0.0546   0.0794   0.0483  -0.0178  -0.0500  -0.0274   0.00    0.0
2121 177030.000  -2448550.7655  -4668098.8044   3582741.1545   6   8   0.0542   0.0787   0.0478  -0.0180  -0.0496  -0.0272   0.00    0.0
2121 177060.000  -2448550.7651  -4668098.8040   3582741.1552   6   8   0.0540   0.0784   0.0476  -0.0180  -0.0493  -0.0270   0.00    0.0
2121 177090.000  -2448550.7646  -4668098.8053   3582741.1570   6   8   0.0538   0.0781   0.0475  -0.0179  -0.0492  -0.0270   0.00    0.0
2121 177120.000  -2448550.7639  -4668098.8075   3582741.1588   6   8   0.0537   0.0778   0.0474  -0.0177  -0.0491  -0.0269   0.00    0.0
2121 177150.000  -2448550.7634  -4668098.8083   3582741.1601   6   8   0.0535   0.0776   0.0473  -0.0176  -0.0489  -0.0269   0.00    0.0
2121 177180.000  -2448550.7626  -4668098.8083   3582741.1610   6   8   0.0534   0.0774   0.0472  -0.0175  -0.0488  -0.0268   0.00    0.0
2121 177210.000  -2448550.7622  -4668098.8090   3582741.1620   6   8   0.0532   0.0771   0.0470  -0.0174  -0.0486  -0.0267   0.00    0.0
2121 177240.000  -2448550.7618  -4668098.8107   3582741.1633   6   9   0.0530   0.0766   0.0468  -0.0174  -0.0484  -0.0266   0.00    0.0
2121 177270.000  -2448550.7587  -4668098.8144   3582741.1639   6   8   0.0526   0.0761   0.0465  -0.0170  -0.0482  -0.0265   0.00    0.0
2121 177300.000  -2448550.7436  -4668098.8186   3582741.1652   6   8   0.0514   0.0744   0.0457  -0.0164  -0.0475  -0.0261   0.00    0.0
2121 177330.000  -2448550.7398  -4668098.8221   3582741.1661   6   8   0.0512   0.0740   0.0455  -0.0162  -0.0473  -0.0260   0.00    0.0
2121 177360.000  -2448550.7371  -4668098.8237   3582741.1670   6   8   0.0510   0.0738   0.0454  -0.0159  -0.0473  -0.0260   0.00    0.0
2121 177390.000  -2448550.7347  -4668098.8244   3582741.1676   6   8   0.0508   0.0736   0.0454  -0.0157  -0.0472  -0.0259   0.00    0.0
2121 177420.000  -2448550.7327  -4668098.8264   3582741.1687   6   8   0.0507   0.0735   0.0453  -0.0155  -0.0472  -0.0259   0.00    0.0
2121 177450.000  -2448550.7306  -4668098.8297   3582741.1709   6   8   0.0506   0.0733   0.0452  -0.0154  -0.0471  -0.0259   0.00    0.0
2121 177480.000  -2448550.7295  -4668098.8293   3582741.1712   6   7   0.0505   0.0732   0.0452  -0.0152  -0.0471  -0.0259   0.00    0.0
2121 177510.000  -2448550.7282  -4668098.8277   3582741.1716   6   8   0.0503   0.0730   0.0451  -0.0149  -0.0470  -0.0259   0.00    0.0
2121 177540.000  -2448550.7262  -4668098.8303   3582741.1731   6   8   0.0501   0.0728   0.0450  -0.0146  -0.0469  -0.0259   0.00    0.0
2121 177570.000  -2448550.7225  -4668098.8378   3582741.1764   6   8   0.0499   0.0723   0.0448  -0.0143  -0.0468  -0.0258   0.00    0.0
2121 177600.000  -2448550.7101  -4668098.8352   3582741.1739   6   7   0.0489   0.0707   0.0442  -0.0134  -0.0461  -0.0256   0.00    0.0
2121 177630.000  -2448550.7054  -4668098.8472   3582741.1830   6   7   0.0486   0.0704   0.0440  -0.0131  -0.0460  -0.0255   0.00    0.0
2121 177660.000  -2448550.7035  -4668098.8507   3582741.1839   6   7   0.0485   0.0702   0.0440  -0.0128  -0.0460  -0.0255   0.00    0.0
2121 177690.000  -2448550.7018  -4668098.8532   3582741.1845   6   7   0.0484   0.0701   0.0439  -0.0126  -0.0459  -0.0255   0.00    0.0
2121 177720.000  -2448550.7007  -4668098.8557   3582741.1855   6   8   0.0483   0.0700   0.0438  -0.0124  -0.0459  -0.0255   0.00    0.0
2121 177750.000  -2448550.7000  -4668098.8571   3582741.1865   6   8   0.0481   0.0698   0.0438  -0.0122  -0.0458  -0.0255   0.00    0.0
2121 177780.000  -2448550.6990  -4668098.8574   3582741.1869   6   8   0.0480   0.0697   0.0438  -0.0119  -0.0458  -0.0255   0.00    0.0
2121 177810.000  -2448550.6982  -4668098.8564   3582741.1861   6   8   0.0479   0.0695   0.0437  -0.0117  -0.0457  -0.0254   0.00    0.0
2121 177840.000  -2448550.6972  -4668098.8568   3582741.1855   6   8   0.0478   0.0693   0.0436  -0.0113  -0.0457  -0.0254   0.00    0.0
2121 177870.000  -2448550.6947  -4668098.8565   3582741.1848   6   8   0.0475   0.0688   0.0434  -0.0109  -0.0455  -0.0254   0.00    0.0
2121 177900.000  -2448550.6846  -4668098.8534   3582741.1836   6   8   0.0467   0.0673   0.0428  -0.0096  -0.0448  -0.0253   0.00    0.0
2121 177930.000  -2448550.6822  -4668098.8545   3582741.1829   6   8   0.0465   0.0670   0.0427  -0.0092  -0.0447  -0.0253   0.00    0.0
2121 177960.000  -2448550.6813  -4668098.8543   3582741.1826   6   8   0.0464   0.0668   0.0426  -0.0089  -0.0446  -0.0253   0.00    0.0
2121 177990.000  -2448550.6805  -4668098.8546   3582741.1824   6   8   0.0463   0.0666   0.0426  -0.0086  -0.0446  -0.0253   0.00    0.0
2121 178020.000  -2448550.6798  -4668098.8547   3582741.1822   6   8   0.0462   0.0665   0.0425  -0.0083  -0.0445  -0.0252   0.00    0.0
2121 178050.000  -2448550.6789  -4668098.8547   3582741.1819   6   8   0.0461   0.0664   0.0425  -0.0080  -0.0445  -0.0252   0.00    0.0
2121 178080.000  -2448550.6776  -4668098.8555   3582741.1823   6   8   0.0460   0.0662   0.0425  -0.0077  -0.0445  -0.0252   0.00    0.0
2121 178110.000  -2448550.6764  -4668098.8570   3582741.1833   6   8   0.0459   0.0660   0.0424  -0.0073  -0.0444  -0.0252   0.00    0.0
2121 178140.000  -2448550.6747  -4668098.8601   3582741.1845   6   8   0.0457   0.0658   0.0423  -0.0069  -0.0443  -0.0252   0.00    0.0
2121 178170.000  -2448550.6710  -4668098.8666   3582741.1857   6   8   0.0455   0.0653   0.0421  -0.0062  -0.0441  -0.0252   0.00    0.0
2121 178200.000  -2448550.6619  -4668098.8671   3582741.1861   6   8   0.0449   0.0637   0.0416  -0.0039  -0.0433  -0.0252   0.00    0.0
2121 178230.000  -2448550.6594  -4668098.8696   3582741.1855   6   8   0.0447   0.0634   0.0414  -0.0029  -0.0432  -0.0252   0.00    0.0
2121 178260.000  -2448550.6574  -4668098.8713   3582741.1845   6   8   0.0446   0.0632   0.0414  -0.0019  -0.0431  -0.0252   0.00    0.0
2121 178290.000  -2448550.6556  -4668098.8719   3582741.1833   6   8   0.0445   0.0631   0.0413   0.0010  -0.0431  -0.0252   0.00    0.0
2121 178320.000  -2448550.6543  -4668098.8722   3582741.1825   6   8   0.0444   0.0629   0.0413   0.0023  -0.0430  -0.0252   0.00    0.0
2121 178350.000  -2448550.6530  -4668098.8726   3582741.1821   6   8   0.0443   0.0628   0.0412   0.0031  -0.0430  -0.0252   0.00    0.0
2121 178380.000  -2448550.6517  -4668098.8725   3582741.1817   6   8   0.0443   0.0627   0.0412   0.0037  -0.0429  -0.0252   0.00    0.0
2121 178410.000  -2448550.6504  -4668098.8717   3582741.1813   6   8   0.0442   0.0625   0.0411   0.0043  -0.0429  -0.0252   0.00    0.0
2121 178440.000  -2448550.6488  -4668098.8697   3582741.1812   6   8   0.0441   0.0623   0.0411   0.0049  -0.0428  -0.0252   0.00    0.0
2121 178470.000  -2448550.6456  -4668098.8692   3582741.1807   6   8   0.0439   0.0618   0.0409   0.0056  -0.0425  -0.0252   0.00    0.0
2121 178500.000  -2448550.6396  -4668098.8731   3582741.1841   6   9   0.0433   0.0601   0.0403   0.0070  -0.0417  -0.0252   0.00    0.0
2121 178530.000  -2448550.6380  -4668098.8748   3582741.1854   6   9   0.0432   0.0598   0.0402   0.0074  -0.0416  -0.0251   0.00    0.0
2121 178560.000  -2448550.6370  -4668098.8768   3582741.1860   6   8   0.0431   0.0596   0.0401   0.0077  -0.0415  -0.0252   0.00    0.0
2121 178590.000  -2448550.6363  -4668098.8764   3582741.1855   6   8   0.0430   0.0595   0.0401   0.0079  -0.0414  -0.0252   0.00    0.0
2121 178620.000  -2448550.6357  -4668098.8764   3582741.1852   6   8   0.0430   0.0594   0.0400   0.0081  -0.0414  -0.0252   0.00    0.0
2121 178650.000  -2448550.6353  -4668098.8766   3582741.1852   6   8   0.0429   0.0592   0.0400   0.0084  -0.0413  -0.0252   0.00    0.0
2121 178680.000  -2448550.6347  -4668098.8780   3582741.1854   6   8   0.0428   0.0591   0.0400   0.0086  -0.0413  -0.0252   0.00    0.0
2121 178710.000  -2448550.6343  -4668098.8788   3582741.1857   6   8   0.0427   0.0590   0.0399   0.0088  -0.0412  -0.0252   0.00    0.0
2121 178740.000  -2448550.6335  -4668098.8795   3582741.1852   6   8   0.0426   0.0587   0.0398   0.0091  -0.0411  -0.0252   0.00    0.0
2121 178770.000  -2448550.6318  -4668098.8801   3582741.1845   6   8   0.0425   0.0583   0.0397   0.0094  -0.0409  -0.0252   0.00    0.0
2121 178800.000  -2448550.6278  -4668098.8812   3582741.1866   6   8   0.0421   0.0567   0.0391   0.0101  -0.0401  -0.0252   0.00    0.0
2121 178830.000  -2448550.6272  -4668098.8810   3582741.1869   6   8   0.0419   0.0564   0.0390   0.0103  -0.0399  -0.0252   0.00    0.0
2121 178860.000  -2448550.6272  -4668098.8804   3582741.1872   6   8   0.0419   0.0562   0.0390   0.0105  -0.0398  -0.0252   0.00    0.0
2121 178890.000  -2448550.6273  -4668098.8800   3582741.1875   6   8   0.0418   0.0561   0.0389   0.0106  -0.0398  -0.0252   0.00    0.0
2121 178920.000  -2448550.6272  -4668098.8806   3582741.1879   6   8   0.0417   0.0559   0.0389   0.0108  -0.0397  -0.0252   0.00    0.0
2121 178950.000  -2448550.6270  -4668098.8810   3582741.1880   6   8   0.0417   0.0558   0.0389   0.0109  -0.0397  -0.0252   0.00    0.0
2121 178980.000  -2448550.6266  -4668098.8813   3582741.1882   6   8   0.0416   0.0557   0.0388   0.0110  -0.0396  -0.0252   0.00    0.0
2121 179010.000  -2448550.6262  -4668098.8822   3582741.1884   6   8   0.0415   0.0556   0.0388   0.0112  -0.0396  -0.0252   0.00    0.0
2121 179040.000  -2448550.6254  -4668098.8832   3582741.1887   6   8   0.0415   0.0554   0.0387   0.0114  -0.0395  -0.0252   0.00    0.0
2121 179070.000  -2448550.6240  -4668098.8848   3582741.1897   6   8   0.0413   0.0549   0.0386   0.0115  -0.0393  -0.0252   0.00    0.0
2121 179100.000  -2448550.6206  -4668098.8870   3582741.1917   6   8   0.0410   0.0534   0.0380   0.0120  -0.0384  -0.0252   0.00    0.0
2121 179130.000  -2448550.6194  -4668098.8875   3582741.1924   6   8   0.0409   0.0531   0.0379   0.0121  -0.0383  -0.0252   0.00    0.0
2121 179160.000  -2448550.6190  -4668098.8876   3582741.1927   6   8   0.0408   0.0529   0.0379   0.0122  -0.0382  -0.0253   0.00    0.0
2121 179190.000  -2448550.6184  -4668098.8876   3582741.1926   6   8   0.0408   0.0528   0.0379   0.0123  -0.0382  -0.0253   0.00    0.0
2121 179220.000  -2448550.6180  -4668098.8880   3582741.1924   6   8   0.0407   0.0527   0.0378   0.0125  -0.0381  -0.0253   0.00    0.0
2121 179250.000  -2448550.6179  -4668098.8882   3582741.1925   6   8   0.0407   0.0526   0.0378   0.0126  -0.0381  -0.0253   0.00    0.0
2121 179280.000  -2448550.6178  -4668098.8881   3582741.1926   6   8   0.0406   0.0525   0.0378   0.0127  -0.0380  -0.0253   0.00    0.0
2121 179310.000  -2448550.6177  -4668098.8880   3582741.1927   6   8   0.0406   0.0523   0.0377   0.0128  -0.0380  -0.0253   0.00    0.0
2121 179340.000  -2448550.6171  -4668098.8899   3582741.1932   6   8   0.0405   0.0521   0.0376   0.0129  -0.0379  -0.0253   0.00    0.0
2121 179370.000  -2448550.6157  -4668098.8949   3582741.1949   6   8   0.0404   0.0518   0.0375   0.0130  -0.0377  -0.0253   0.00    0.0
2121 179400.000  -2448550.6130  -4668098.9002   3582741.1994   6   8   0.0401   0.0503   0.0370   0.0132  -0.0368  -0.0253   0.00    0.0
2121 179430.000  -2448550.6123  -4668098.8992   3582741.1997   6   8   0.0400   0.0500   0.0369   0.0133  -0.0367  -0.0253   0.00    0.0
2121 179460.000  -2448550.6121  -4668098.8968   3582741.1995   6   8   0.0400   0.0498   0.0369   0.0134  -0.0366  -0.0253   0.00    0.0
2121 179490.000  -2448550.6122  -4668098.8954   3582741.1997   6   8   0.0399   0.0497   0.0368   0.0135  -0.0366  -0.0253   0.00    0.0
2121 179520.000  -2448550.6124  -4668098.8936   3582741.1996   6   8   0.0399   0.0496   0.0368   0.0135  -0.0365  -0.0253   0.00    0.0
2121 179550.000  -2448550.6126  -4668098.8915   3582741.1993   6   8   0.0398   0.0495   0.0368   0.0136  -0.0365  -0.0253   0.00    0.0
2121 179580.000  -2448550.6129  -4668098.8902   3582741.1993   6   8   0.0398   0.0494   0.0367   0.0137  -0.0365  -0.0253   0.00    0.0
2121 179610.000  -2448550.6131  -4668098.8902   3582741.1999   6   8   0.0397   0.0493   0.0367   0.0138  -0.0364  -0.0253   0.00    0.0
2121 179640.000  -2448550.6129  -4668098.8909   3582741.2008   6   8   0.0397   0.0491   0.0366   0.0139  -0.0363  -0.0253   0.00    0.0
2121 179670.000  -2448550.6125  -4668098.8923   3582741.2021   6   8   0.0396   0.0488   0.0365   0.0139  -0.0361  -0.0253   0.00    0.0
2121 179700.000  -2448550.6112  -4668098.8982   3582741.2063   6   8   0.0394   0.0474   0.0360   0.0140  -0.0353  -0.0253   0.00    0.0
2121 179730.000  -2448550.6104  -4668098.8984   3582741.2069   6   8   0.0393   0.0471   0.0359   0.0140  -0.0352  -0.0253   0.00    0.0
2121 179760.000  -2448550.6098  -4668098.8987   3582741.2074   6   8   0.0393   0.0470   0.0359   0.0141  -0.0351  -0.0253   0.00    0.0
2121 179790.000  -2448550.6094  -4668098.8990   3582741.2078   6   8   0.0392   0.0469   0.0358   0.0142  -0.0350  -0.0253   0.00    0.0
2121 179820.000  -2448550.6089  -4668098.8998   3582741.2083   6   8   0.0392   0.0468   0.0358   0.0142  -0.0350  -0.0253   0.00    0.0
2121 179850.000  -2448550.6086  -4668098.9002   3582741.2086   6   8   0.0391   0.0467   0.0358   0.0143  -0.0350  -0.0253   0.00    0.0
2121 179880.000  -2448550.6082  -4668098.8998   3582741.2086   6   8   0.0391   0.0466   0.0357   0.0144  -0.0349  -0.0254   0.00    0.0
2121 179910.000  -2448550.6077  -4668098.9008   3582741.2087   6   8   0.0390   0.0464   0.0357   0.0144  -0.0349  -0.0254   0.00    0.0
2121 179940.000  -2448550.6071  -4668098.9033   3582741.2095   6   8   0.0390   0.0463   0.0356   0.0145  -0.0348  -0.0254   0.00    0.0
2121 179970.000  -2448550.6058  -4668098.9074   3582741.2112   6   8   0.0389   0.0459   0.0355   0.0145  -0.0346  -0.0253   0.00    0.0
2121 180000.000  -2448550.6033  -4668098.9107   3582741.2132   6   8   0.0387   0.0446   0.0350   0.0144  -0.0338  -0.0253   0.00    0.0
2121 180030.000  -2448550.6037  -4668098.9130   3582741.2147   6   8   0.0387   0.0444   0.0349   0.0144  -0.0336  -0.0253   0.00    0.0
2121 180060.000  -2448550.6037  -4668098.9133   3582741.2149   6   8   0.0386   0.0442   0.0349   0.0144  -0.0335  -0.0253   0.00    0.0
2121 180090.000  -2448550.6033  -4668098.9133   3582741.2148   6   8   0.0386   0.0441   0.0348   0.0145  -0.0335  -0.0253   0.00    0.0
2121 180120.000  -2448550.6028  -4668098.9130   3582741.2148   6   8   0.0386   0.0440   0.0348   0.0145  -0.0334  -0.0253   0.00    0.0
2121 180150.000  -2448550.6028  -4668098.9128   3582741.2151   6   8   0.0385   0.0440   0.0348   0.0146  -0.0334  -0.0253   0.00    0.0
2121 180180.000  -2448550.6029  -4668098.9124   3582741.2152   6   8   0.0385   0.0439   0.0347   0.0146  -0.0334  -0.0253   0.00    0.0
2121 180210.000  -2448550.6027  -4668098.9116   3582741.2149   6   8   0.0385   0.0437   0.0347   0.0147  -0.0333  -0.0253   0.00    0.0
2121 180240.000  -2448550.6021  -4668098.9119   3582741.2151   6   8   0.0384   0.0436   0.0346   0.0147  -0.0332  -0.0253   0.00    0.0
2121 180270.000  -2448550.6011  -4668098.9146   3582741.2166   6   8   0.0383   0.0433   0.0345   0.0147  -0.0330  -0.0253   0.00    0.0
2121 180300.000  -2448550.6002  -4668098.9174   3582741.2188   6   8   0.0382   0.0420   0.0339   0.0144  -0.0321  -0.0251   0.00    0.0
2121 180330.000  -2448550.6005  -4668098.9164   3582741.2188   6   8   0.0381   0.0417   0.0338   0.0143  -0.0320  -0.0251   0.00    0.0
2121 180360.000  -2448550.6003  -4668098.9143   3582741.2179   6   8   0.0381   0.0416   0.0337   0.0144  -0.0319  -0.0251   0.00    0.0
2121 180390.000  -2448550.6006  -4668098.9131   3582741.2177   6   7   0.0380   0.0415   0.0337   0.0144  -0.0319  -0.0251   0.00    0.0
2121 180420.000  -2448550.6009  -4668098.9126   3582741.2176   6   7   0.0380   0.0414   0.0337   0.0145  -0.0318  -0.0251   0.00    0.0
2121 180450.000  -2448550.6012  -4668098.9122   3582741.2176   6   7   0.0380   0.0413   0.0337   0.0145  -0.0318  -0.0251   0.00    0.0
2121 180480.000  -2448550.6015  -4668098.9118   3582741.2177   6   7   0.0380   0.0413   0.0336   0.0146  -0.0318  -0.0251   0.00    0.0
2121 180510.000  -2448550.6018  -4668098.9116   3582741.2180   6   7   0.0379   0.0412   0.0336   0.0146  -0.0317  -0.0251   0.00    0.0
2121 180540.000  -2448550.6017  -4668098.9123   3582741.2188   6   7   0.0379   0.0410   0.0336   0.0147  -0.0317  -0.0252   0.00    0.0
2121 180570.000  -2448550.6011  -4668098.9139   3582741.2202   6   7   0.0379   0.0408   0.0335   0.0148  -0.0315  -0.0252   0.00    0.0
2121 180600.000  -2448550.6009  -4668098.9174   3582741.2226   6   7   0.0378   0.0399   0.0332   0.0148  -0.0310  -0.0252   0.00    0.0
2121 180630.000  -2448550.6009  -4668098.9179   3582741.2230   6   7   0.0378   0.0397   0.0331   0.0149  -0.0309  -0.0253   0.00    0.0
2121 180660.000  -2448550.6008  -4668098.9183   3582741.2233   6   7   0.0378   0.0396   0.0331   0.0149  -0.0308  -0.0253   0.00    0.0
2121 180690.000  -2448550.6009  -4668098.9180   3582741.2232   6   7   0.0377   0.0395   0.0330   0.0150  -0.0308  -0.0253   0.00    0.0
2121 180720.000  -2448550.6010  -4668098.9178   3582741.2232   6   7   0.0377   0.0394   0.0330   0.0150  -0.0308  -0.0253   0.00    0.0
2121 180750.000  -2448550.6010  -4668098.9177   3582741.2231   6   7   0.0377   0.0394   0.0330   0.0150  -0.0307  -0.0253   0.00    0.0
2121 180780.000  -2448550.6011  -4668098.9179   3582741.2233   6   7   0.0377   0.0393   0.0330   0.0151  -0.0307  -0.0253   0.00    0.0
2121 180810.000  -2448550.6013  -4668098.9184   3582741.2236   6   7   0.0376   0.0392   0.0329   0.0151  -0.0307  -0.0253   0.00    0.0
2121 180840.000  -2448550.6014  -4668098.9202   3582741.2245   6   7   0.0376   0.0391   0.0329   0.0152  -0.0306  -0.0253   0.00    0.0
2121 180870.000  -2448550.6013  -4668098.9252   3582741.2269   6   7   0.0376   0.0389   0.0328   0.0152  -0.0305  -0.0253   0.00    0.0
2121 180900.000  -2448550.6015  -4668098.9290   3582741.2308   6   7   0.0375   0.0380   0.0324   0.0151  -0.0299  -0.0253   0.00    0.0
2121 180930.000  -2448550.6015  -4668098.9301   3582741.2316   6   7   0.0375   0.0378   0.0324   0.0151  -0.0298  -0.0253   0.00    0.0
2121 180960.000  -2448550.6013  -4668098.9309   3582741.2321   6   7   0.0375   0.0377   0.0323   0.0151  -0.0297  -0.0253   0.00    0.0
2121 180990.000  -2448550.6013  -4668098.9314   3582741.2323   6   6   0.0375   0.0376   0.0323   0.0151  -0.0297  -0.0253   0.00    0.0
2121 181020.000  -2448550.6013  -4668098.9318   3582741.2325   6   6   0.0374   0.0376   0.0323   0.0152  -0.0297  -0.0253   0.00    0.0
2121 181050.000  -2448550.6013  -4668098.9318   3582741.2327   6   6   0.0374   0.0375   0.0323   0.0152  -0.0297  -0.0253   0.00    0.0
2121 181080.000  -2448550.6012  -4668098.9316   3582741.2330   6   6   0.0374   0.0374   0.0323   0.0152  -0.0296  -0.0253   0.00    0.0
2121 181110.000  -2448550.6012  -4668098.9318   3582741.2334   6   6   0.0374   0.0374   0.0322   0.0153  -0.0296  -0.0253   0.00    0.0
2121 181140.000  -2448550.6011  -4668098.9328   3582741.2342   6   6   0.0374   0.0373   0.0322   0.0153  -0.0296  -0.0254   0.00    0.0
2121 181170.000  -2448550.6011  -4668098.9339   3582741.2353   6   6   0.0373   0.0371   0.0322   0.0153  -0.0295  -0.0254   0.00    0.0
2121 181200.000  -2448550.6003  -4668098.9332   3582741.2356   6   6   0.0373   0.0365   0.0320   0.0153  -0.0292  -0.0254   0.00    0.0
2121 181230.000  -2448550.6001  -4668098.9328   3582741.2354   6   6   0.0373   0.0364   0.0319   0.0153  -0.0291  -0.0254   0.00    0.0
2121 181260.000  -2448550.6001  -4668098.9322   3582741.2350   6   6   0.0373   0.0363   0.0319   0.0154  -0.0291  -0.0254   0.00    0.0
2121 181290.000  -2448550.6001  -4668098.9318   3582741.2348   6   6   0.0372   0.0363   0.0319   0.0154  -0.0290  -0.0254   0.00    0.0
2121 181320.000  -2448550.6001  -4668098.9315   3582741.2345   6   6   0.0372   0.0362   0.0319   0.0154  -0.0290  -0.0254   0.00    0.0
2121 181350.000  -2448550.6001  -4668098.9311   3582741.2341   6   6   0.0372   0.0362   0.0318   0.0154  -0.0290  -0.0254   0.00    0.0
2121 181380.000  -2448550.6000  -4668098.9310   3582741.2340   6   7   0.0372   0.0361   0.0318   0.0155  -0.0290  -0.0254   0.00    0.0
2121 181410.000  -2448550.6000  -4668098.9310   3582741.2342   6   7   0.0372   0.0360   0.0318   0.0155  -0.0289  -0.0254   0.00    0.0
2121 181440.000  -2448550.5998  -4668098.9316   3582741.2349   6   7   0.0372   0.0359   0.0318   0.0155  -0.0289  -0.0254   0.00    0.0
2121 181470.000  -2448550.5998  -4668098.9334   3582741.2360   6   7   0.0371   0.0358   0.0317   0.0155  -0.0288  -0.0254   0.00    0.0
2121 181500.000  -2448550.5990  -4668098.9333   3582741.2360   6   7   0.0371   0.0353   0.0315   0.0155  -0.0285  -0.0254   0.00    0.0
2121 181530.000  -2448550.5988  -4668098.9336   3582741.2361   6   7   0.0371   0.0352   0.0315   0.0155  -0.0285  -0.0254   0.00    0.0
2121 181560.000  -2448550.5987  -4668098.9338   3582741.2362   6   7   0.0370   0.0351   0.0315   0.0155  -0.0285  -0.0254   0.00    0.0
2121 181590.000  -2448550.5985  -4668098.9343   3582741.2363   6   7   0.0370   0.0351   0.0314   0.0155  -0.0284  -0.0255   0.00    0.0
2121 181620.000  -2448550.5983  -4668098.9349   3582741.2364   6   7   0.0370   0.0350   0.0314   0.0156  -0.0284  -0.0255   0.00    0.0
2121 181650.000  -2448550.5981  -4668098.9356   3582741.2364   6   7   0.0370   0.0350   0.0314   0.0156  -0.0284  -0.0255   0.00    0.0
2121 181680.000  -2448550.5980  -4668098.9365   3582741.2366   6   7   0.0370   0.0349   0.0314   0.0156  -0.0284  -0.0255   0.00    0.0
2121 181710.000  -2448550.5979  -4668098.9379   3582741.2372   6   7   0.0370   0.0348   0.0314   0.0156  -0.0283  -0.0255   0.00    0.0
2121 181740.000  -2448550.5977  -4668098.9388   3582741.2379   6   7   0.0369   0.0348   0.0313   0.0156  -0.0283  -0.0255   0.00    0.0
2121 181770.000  -2448550.5973  -4668098.9399   3582741.2389   6   7   0.0369   0.0346   0.0313   0.0156  -0.0282  -0.0254   0.00    0.0
2121 181800.000  -2448550.5966  -4668098.9400   3582741.2385   6   7   0.0368   0.0342   0.0311   0.0155  -0.0279  -0.0254   0.00    0.0
2121 181830.000  -2448550.5961  -4668098.9404   3582741.2385   6   7   0.0368   0.0341   0.0310   0.0155  -0.0279  -0.0254   0.00    0.0
2121 181860.000  -2448550.5955  -4668098.9401   3582741.2384   6   7   0.0368   0.0340   0.0310   0.0156  -0.0279  -0.0254   0.00    0.0
2121 181890.000  -2448550.5949  -4668098.9398   3582741.2381   6   7   0.0368   0.0340   0.0310   0.0156  -0.0278  -0.0254   0.00    0.0
2121 181920.000  -2448550.5946  -4668098.9397   3582741.2379   6   7   0.0368   0.0339   0.0310   0.0156  -0.0278  -0.0254   0.00    0.0
2121 181950.000  -2448550.5945  -4668098.9394   3582741.2376   6   7   0.0367   0.0339   0.0310   0.0156  -0.0278  -0.0254   0.00    0.0
2121 181980.000  -2448550.5944  -4668098.9392   3582741.2374   6   7   0.0367   0.0338   0.0309   0.0156  -0.0278  -0.0254   0.00    0.0
2121 182010.000  -2448550.5944  -4668098.9392   3582741.2373   6   7   0.0367   0.0337   0.0309   0.0156  -0.0277  -0.0254   0.00    0.0
2121 182040.000  -2448550.5941  -4668098.9399   3582741.2374   6   7   0.0367   0.0337   0.0309   0.0156  -0.0277  -0.0254   0.00    0.0
2121 182070.000  -2448550.5937  -4668098.9412   3582741.2377   6   7   0.0366   0.0336   0.0308   0.0156  -0.0276  -0.0254   0.00    0.0
2121 182100.000  -2448550.5936  -4668098.9414   3582741.2378   6   7   0.0366   0.0331   0.0306   0.0155  -0.0273  -0.0253   0.00    0.0
2121 182130.000  -2448550.5936  -4668098.9416   3582741.2378   6   7   0.0365   0.0330   0.0306   0.0155  -0.0273  -0.0253   0.00    0.0
2121 182160.000  -2448550.5935  -4668098.9417   3582741.2376   6   7   0.0365   0.0330   0.0305   0.0155  -0.0273  -0.0253   0.00    0.0
2121 182190.000  -2448550.5933  -4668098.9417   3582741.2373   6   7   0.0365   0.0329   0.0305   0.0155  -0.0272  -0.0253   0.00    0.0
2121 182220.000  -2448550.5933  -4668098.9417   3582741.2373   6   7   0.0365   0.0329   0.0305   0.0155  -0.0272  -0.0253   0.00    0.0
2121 182250.000  -2448550.5933  -4668098.9416   3582741.2370   6   7   0.0365   0.0328   0.0305   0.0155  -0.0272  -0.0253   0.00    0.0
2121 182280.000  -2448550.5932  -4668098.9414   3582741.2368   6   7   0.0364   0.0328   0.0304   0.0155  -0.0272  -0.0253   0.00    0.0
2121 182310.000  -2448550.5932  -4668098.9413   3582741.2369   6   7   0.0364   0.0327   0.0304   0.0155  -0.0271  -0.0252   0.00    0.0
2121 182340.000  -2448550.5931  -4668098.9418   3582741.2373   6   7   0.0364   0.0327   0.0304   0.0155  -0.0271  -0.0252   0.00    0.0
2121 182370.000  -2448550.5929  -4668098.9428   3582741.2379   6   7   0.0364   0.0326   0.0303   0.0155  -0.0270  -0.0252   0.00    0.0
2121 182400.000  -2448550.5914  -4668098.9412   3582741.2366   6   7   0.0362   0.0322   0.0301   0.0153  -0.0268  -0.0251   0.00    0.0
2121 182430.000  -2448550.5914  -4668098.9409   3582741.2364   6   7   0.0362   0.0321   0.0300   0.0153  -0.0267  -0.0251   0.00    0.0
2121 182460.000  -2448550.5914  -4668098.9405   3582741.2363   6   7   0.0362   0.0321   0.0300   0.0153  -0.0267  -0.0251   0.00    0.0
2121 182490.000  -2448550.5912  -4668098.9398   3582741.2361   6   7   0.0362   0.0320   0.0300   0.0153  -0.0267  -0.0251   0.00    0.0
2121 182520.000  -2448550.5909  -4668098.9391   3582741.2358   6   7   0.0362   0.0320   0.0300   0.0153  -0.0266  -0.0251   0.00    0.0
2121 182550.000  -2448550.5905  -4668098.9386   3582741.2355   6   7   0.0361   0.0319   0.0300   0.0153  -0.0266  -0.0250   0.00    0.0
2121 182580.000  -2448550.5903  -4668098.9383   3582741.2353   6   7   0.0361   0.0319   0.0299   0.0153  -0.0266  -0.0250   0.00    0.0
2121 182610.000  -2448550.5902  -4668098.9383   3582741.2353   6   7   0.0361   0.0318   0.0299   0.0153  -0.0266  -0.0250   0.00    0.0
2121 182640.000  -2448550.5896  -4668098.9385   3582741.2355   6   7   0.0361   0.0318   0.0299   0.0153  -0.0265  -0.0250   0.00    0.0
2121 182670.000  -2448550.5888  -4668098.9387   3582741.2358   6   7   0.0360   0.0317   0.0298   0.0153  -0.0265  -0.0250   0.00    0.0
2121 182700.000  -2448550.5874  -4668098.9381   3582741.2348   6   7   0.0359   0.0314   0.0296   0.0151  -0.0262  -0.0249   0.00    0.0
2121 182730.000  -2448550.5870  -4668098.9378   3582741.2350   6   7   0.0359   0.0313   0.0296   0.0151  -0.0262  -0.0248   0.00    0.0
2121 182760.000  -2448550.5868  -4668098.9376   3582741.2350   6   7   0.0359   0.0312   0.0295   0.0151  -0.0262  -0.0248   0.00    0.0
2121 182790.000  -2448550.5864  -4668098.9374   3582741.2347   6   7   0.0358   0.0312   0.0295   0.0151  -0.0262  -0.0248   0.00    0.0
2121 182820.000  -2448550.5861  -4668098.9374   3582741.2344   6   7   0.0358   0.0312   0.0295   0.0151  -0.0261  -0.0248   0.00    0.0
2121 182850.000  -2448550.5858  -4668098.9375   3582741.2342   6   7   0.0358   0.0311   0.0295   0.0151  -0.0261  -0.0248   0.00    0.0
2121 182880.000  -2448550.5855  -4668098.9378   3582741.2340   6   7   0.0358   0.0311   0.0294   0.0151  -0.0261  -0.0248   0.00    0.0
2121 182910.000  -2448550.5853  -4668098.9382   3582741.2339   6   7   0.0358   0.0311   0.0294   0.0151  -0.0261  -0.0248   0.00    0.0
2121 182940.000  -2448550.5853  -4668098.9385   3582741.2342   6   7   0.0357   0.0310   0.0294   0.0151  -0.0260  -0.0248   0.00    0.0
2121 182970.000  -2448550.5849  -4668098.9387   3582741.2346   6   7   0.0357   0.0309   0.0293   0.0151  -0.0260  -0.0247   0.00    0.0
2121 183000.000  -2448550.5833  -4668098.9379   3582741.2329   6   7   0.0356   0.0307   0.0291   0.0149  -0.0258  -0.0246   0.00    0.0
2121 183030.000  -2448550.5828  -4668098.9374   3582741.2323   6   7   0.0355   0.0306   0.0291   0.0149  -0.0258  -0.0246   0.00    0.0
2121 183060.000  -2448550.5825  -4668098.9371   3582741.2322   6   7   0.0355   0.0305   0.0291   0.0149  -0.0257  -0.0246   0.00    0.0
2121 183090.000  -2448550.5822  -4668098.9367   3582741.2322   6   7   0.0355   0.0305   0.0290   0.0149  -0.0257  -0.0245   0.00    0.0
2121 183120.000  -2448550.5819  -4668098.9363   3582741.2321   6   7   0.0355   0.0305   0.0290   0.0149  -0.0257  -0.0245   0.00    0.0
2121 183150.000  -2448550.5817  -4668098.9358   3582741.2319   6   7   0.0354   0.0304   0.0290   0.0149  -0.0257  -0.0245   0.00    0.0
2121 183180.000  -2448550.5816  -4668098.9355   3582741.2317   6   7   0.0354   0.0304   0.0290   0.0149  -0.0257  -0.0245   0.00    0.0
2121 183210.000  -2448550.5816  -4668098.9351   3582741.2317   6   7   0.0354   0.0304   0.0290   0.0149  -0.0256  -0.0245   0.00    0.0
2121 183240.000  -2448550.5815  -4668098.9353   3582741.2318   6   7   0.0354   0.0303   0.0289   0.0149  -0.0256  -0.0245   0.00    0.0
2121 183270.000  -2448550.5814  -4668098.9359   3582741.2323   6   7   0.0353   0.0303   0.0289   0.0149  -0.0256  -0.0245   0.00    0.0
2121 183300.000  -2448550.5794  -4668098.9358   3582741.2307   6   7   0.0352   0.0301   0.0287   0.0148  -0.0254  -0.0243   0.00    0.0
2121 183330.000  -2448550.5789  -4668098.9354   3582741.2307   6   7   0.0351   0.0300   0.0287   0.0148  -0.0254  -0.0243   0.00    0.0
2121 183360.000  -2448550.5785  -4668098.9351   3582741.2306   6   7   0.0351   0.0300   0.0286   0.0148  -0.0254  -0.0243   0.00    0.0
2121 183390.000  -2448550.5779  -4668098.9350   3582741.2306   6   7   0.0351   0.0299   0.0286   0.0148  -0.0253  -0.0243   0.00    0.0
2121 183420.000  -2448550.5773  -4668098.9348   3582741.2304   6   7   0.0351   0.0299   0.0286   0.0148  -0.0253  -0.0243   0.00    0.0
2121 183450.000  -2448550.5769  -4668098.9342   3582741.2301   6   7   0.0351   0.0299   0.0286   0.0148  -0.0253  -0.0243   0.00    0.0
2121 183480.000  -2448550.5764  -4668098.9334   3582741.2298   6   7   0.0350   0.0299   0.0286   0.0148  -0.0253  -0.0243   0.00    0.0
2121 183510.000  -2448550.5759  -4668098.9330   3582741.2296   6   7   0.0350   0.0298   0.0286   0.0148  -0.0253  -0.0242   0.00    0.0
2121 183540.000  -2448550.5753  -4668098.9328   3582741.2296   6   7   0.0350   0.0298   0.0285   0.0148  -0.0253  -0.0242   0.00    0.0
2121 183570.000  -2448550.5745  -4668098.9326   3582741.2296   6   7   0.0350   0.0297   0.0285   0.0148  -0.0252  -0.0242   0.00    0.0
2121 183600.000  -2448550.5723  -4668098.9319   3582741.2278   6   7   0.0348   0.0296   0.0283   0.0147  -0.0251  -0.0241   0.00    0.0
2121 183630.000  -2448550.5716  -4668098.9317   3582741.2274   6   7   0.0348   0.0295   0.0283   0.0147  -0.0251  -0.0240   0.00    0.0
2121 183660.000  -2448550.5713  -4668098.9314   3582741.2270   6   7   0.0348   0.0295   0.0283   0.0147  -0.0251  -0.0240   0.00    0.0
2121 183690.000  -2448550.5711  -4668098.9311   3582741.2267   6   7   0.0347   0.0295   0.0282   0.0147  -0.0251  -0.0240   0.00    0.0
2121 183720.000  -2448550.5709  -4668098.9311   3582741.2267   6   7   0.0347   0.0295   0.0282   0.0147  -0.0251  -0.0240   0.00    0.0
2121 183750.000  -2448550.5707  -4668098.9309   3582741.2267   6   7   0.0347   0.0294   0.0282   0.0147  -0.0251  -0.0240   0.00    0.0
2121 183780.000  -2448550.5704  -4668098.9304   3582741.2264   6   7   0.0347   0.0294   0.0282   0.0147  -0.0250  -0.0240   0.00    0.0
2121 183810.000  -2448550.5700  -4668098.9299   3582741.2264   6   7   0.0346   0.0294   0.0282   0.0147  -0.0250  -0.0240   0.00    0.0
2121 183840.000  -2448550.5695  -4668098.9299   3582741.2266   6   7   0.0346   0.0294   0.0282   0.0147  -0.0250  -0.0240   0.00    0.0
2121 183870.000  -2448550.5691  -4668098.9299   3582741.2265   6   7   0.0346   0.0293   0.0281   0.0147  -0.0250  -0.0239   0.00    0.0
2121 183900.000  -2448550.5680  -4668098.9291   3582741.2252   6   7   0.0344   0.0292   0.0280   0.0147  -0.0249  -0.0238   0.00    0.0
2121 183930.000  -2448550.5677  -4668098.9290   3582741.2253   6   7   0.0344   0.0292   0.0279   0.0147  -0.0249  -0.0238   0.00    0.0
2121 183960.000  -2448550.5674  -4668098.9290   3582741.2256   6   7   0.0344   0.0292   0.0279   0.0147  -0.0249  -0.0238   0.00    0.0
2121 183990.000  -2448550.5671  -4668098.9288   3582741.2257   6   7   0.0344   0.0291   0.0279   0.0147  -0.0249  -0.0238   0.00    0.0
2121 184020.000  -2448550.5669  -4668098.9284   3582741.2255   6   7   0.0343   0.0291   0.0279   0.0147  -0.0249  -0.0238   0.00    0.0
2121 184050.000  -2448550.5667  -4668098.9280   3582741.2253   6   7   0.0343   0.0291   0.0279   0.0147  -0.0249  -0.0237   0.00    0.0
2121 184080.000  -2448550.5663  -4668098.9279   3582741.2253   6   7   0.0343   0.0291   0.0279   0.0147  -0.0248  -0.0237   0.00    0.0
2121 184110.000  -2448550.5657  -4668098.9278   3582741.2251   6   7   0.0343   0.0291   0.0279   0.0147  -0.0248  -0.0237   0.00    0.0
2121 184140.000  -2448550.5653  -4668098.9276   3582741.2249   6   7   0.0342   0.0291   0.0278   0.0147  -0.0248  -0.0237   0.00    0.0
2121 184170.000  -2448550.5644  -4668098.9274   3582741.2244   6   7   0.0342   0.0290   0.0278   0.0147  -0.0248  -0.0237   0.00    0.0
2121 184200.000  -2448550.5628  -4668098.9271   3582741.2226   6   7   0.0341   0.0289   0.0277   0.0147  -0.0247  -0.0236   0.00    0.0
2121 184230.000  -2448550.5628  -4668098.9272   3582741.2228   6   7   0.0340   0.0289   0.0276   0.0147  -0.0247  -0.0236   0.00    0.0
2121 184260.000  -2448550.5627  -4668098.9269   3582741.2229   6   7   0.0340   0.0289   0.0276   0.0147  -0.0247  -0.0235   0.00    0.0
2121 184290.000  -2448550.5625  -4668098.9267   3582741.2233   6   7   0.0340   0.0289   0.0276   0.0147  -0.0247  -0.0235   0.00    0.0
2121 184320.000  -2448550.5621  -4668098.9267   3582741.2238   6   8   0.0340   0.0289   0.0276   0.0147  -0.0247  -0.0235   0.00    0.0
2121 184350.000  -2448550.5619  -4668098.9264   3582741.2239   6   8   0.0339   0.0288   0.0276   0.0147  -0.0247  -0.0235   0.00    0.0
2121 184380.000  -2448550.5618  -4668098.9260   3582741.2238   6   8   0.0339   0.0288   0.0276   0.0147  -0.0247  -0.0235   0.00    0.0
2121 184410.000  -2448550.5611  -4668098.9258   3582741.2239   6   8   0.0339   0.0288   0.0276   0.0147  -0.0247  -0.0235   0.00    0.0
2121 184440.000  -2448550.5601  -4668098.9256   3582741.2237   6   8   0.0339   0.0288   0.0275   0.0147  -0.0247  -0.0235   0.00    0.0
2121 184470.000  -2448550.5589  -4668098.9250   3582741.2225   6   8   0.0338   0.0288   0.0275   0.0147  -0.0247  -0.0234   0.00    0.0
2121 184500.000  -2448550.5575  -4668098.9254   3582741.2216   6   8   0.0337   0.0287   0.0274   0.0148  -0.0246  -0.0233   0.00    0.0
2121 184530.000  -2448550.5569  -4668098.9252   3582741.2215   6   8   0.0336   0.0287   0.0273   0.0148  -0.0246  -0.0233   0.00    0.0
2121 184560.000  -2448550.5563  -4668098.9251   3582741.2218   6   8   0.0336   0.0287   0.0273   0.0148  -0.0246  -0.0233   0.00    0.0
2121 184590.000  -2448550.5560  -4668098.9250   3582741.2219   6   8   0.0336   0.0286   0.0273   0.0148  -0.0246  -0.0233   0.00    0.0
2121 184620.000  -2448550.5557  -4668098.9248   3582741.2219   6   8   0.0336   0.0286   0.0273   0.0148  -0.0246  -0.0233   0.00    0.0
2121 184650.000  -2448550.5550  -4668098.9249   3582741.2221   6   8   0.0335   0.0286   0.0273   0.0148  -0.0246  -0.0233   0.00    0.0
2121 184680.000  -2448550.5539  -4668098.9251   3582741.2223   6   8   0.0335   0.0286   0.0273   0.0148  -0.0246  -0.0232   0.00    0.0
2121 184710.000  -2448550.5530  -4668098.9250   3582741.2223   6   8   0.0335   0.0286   0.0273   0.0148  -0.0246  -0.0232   0.00    0.0
2121 184740.000  -2448550.5522  -4668098.9247   3582741.2218   6   8   0.0335   0.0286   0.0272   0.0148  -0.0246  -0.0232   0.00    0.0
2121 184770.000  -2448550.5507  -4668098.9244   3582741.2212   6   8   0.0334   0.0286   0.0272   0.0148  -0.0245  -0.0232   0.00    0.0
2121 184800.000  -2448550.5494  -4668098.9242   3582741.2198   6   7   0.0333   0.0285   0.0271   0.0148  -0.0245  -0.0231   0.00    0.0
2121 184830.000  -2448550.5493  -4668098.9245   3582741.2199   6   7   0.0332   0.0285   0.0270   0.0148  -0.0245  -0.0230   0.00    0.0
2121 184860.000  -2448550.5493  -4668098.9244   3582741.2197   6   7   0.0332   0.0284   0.0270   0.0148  -0.0245  -0.0230   0.00    0.0
2121 184890.000  -2448550.5448  -4668098.9254   3582741.2223   6   7   0.0332   0.0284   0.0270   0.0148  -0.0245  -0.0230   0.00    0.0
2121 184920.000  -2448550.5410  -4668098.9260   3582741.2243   6   7   0.0332   0.0284   0.0270   0.0148  -0.0245  -0.0230   0.00    0.0
2121 184950.000  -2448550.5409  -4668098.9260   3582741.2241   6   7   0.0331   0.0284   0.0270   0.0148  -0.0244  -0.0230   0.00    0.0
2121 184980.000  -2448550.5412  -4668098.9259   3582741.2239   6   8   0.0331   0.0284   0.0269   0.0149  -0.0244  -0.0230   0.00    0.0
2121 185010.000  -2448550.5416  -4668098.9258   3582741.2237   6   8   0.0331   0.0284   0.0269   0.0149  -0.0244  -0.0229   0.00    0.0
2121 185040.000  -2448550.5414  -4668098.9259   3582741.2238   6   8   0.0331   0.0284   0.0269   0.0149  -0.0244  -0.0229   0.00    0.0
2121 185070.000  -2448550.5407  -4668098.9264   3582741.2242   6   8   0.0330   0.0284   0.0269   0.0149  -0.0244  -0.0229   0.00    0.0
2121 185100.000  -2448550.5394  -4668098.9270   3582741.2236   6   8   0.0329   0.0283   0.0267   0.0149  -0.0243  -0.0228   0.00    0.0
2121 185130.000  -2448550.5394  -4668098.9269   3582741.2234   6   8   0.0328   0.0282   0.0267   0.0149  -0.0243  -0.0228   0.00    0.0
2121 185160.000  -2448550.5396  -4668098.9272   3582741.2237   6   8   0.0328   0.0282   0.0266   0.0149  -0.0243  -0.0227   0.00    0.0
2121 185190.000  -2448550.5395  -4668098.9273   3582741.2240   6   8   0.0328   0.0282   0.0266   0.0149  -0.0243  -0.0227   0.00    0.0
2121 185220.000  -2448550.5398  -4668098.9272   3582741.2243   6   8   0.0327   0.0282   0.0266   0.0149  -0.0243  -0.0227   0.00    0.0
2121 185250.000  -2448550.5402  -4668098.9271   3582741.2244   6   8   0.0327   0.0282   0.0266   0.0149  -0.0243  -0.0227   0.00    0.0
2121 185280.000  -2448550.5404  -4668098.9269   3582741.2243   6   8   0.0327   0.0282   0.0266   0.0149  -0.0243  -0.0227   0.00    0.0
2121 185310.000  -2448550.5403  -4668098.9266   3582741.2239   6   8   0.0327   0.0282   0.0265   0.0149  -0.0242  -0.0226   0.00    0.0
2121 185340.000  -2448550.5397  -4668098.9262   3582741.2232   6   8   0.0326   0.0282   0.0265   0.0149  -0.0242  -0.0226   0.00    0.0
2121 185370.000  -2448550.5385  -4668098.9260   3582741.2222   6   8   0.0326   0.0281   0.0265   0.0149  -0.0242  -0.0226   0.00    0.0
2121 185400.000  -2448550.5359  -4668098.9244   3582741.2189   6   8   0.0324   0.0280   0.0262   0.0149  -0.0240  -0.0224   0.00    0.0
2121 185430.000  -2448550.5354  -4668098.9242   3582741.2182   6   8   0.0324   0.0279   0.0262   0.0149  -0.0240  -0.0224   0.00    0.0
2121 185460.000  -2448550.5352  -4668098.9240   3582741.2177   6   8   0.0324   0.0279   0.0262   0.0149  -0.0240  -0.0224   0.00    0.0
2121 185490.000  -2448550.5350  -4668098.9238   3582741.2173   6   8   0.0323   0.0279   0.0261   0.0149  -0.0240  -0.0224   0.00    0.0
2121 185520.000  -2448550.5350  -4668098.9237   3582741.2169   6   8   0.0323   0.0279   0.0261   0.0149  -0.0240  -0.0223   0.00    0.0
2121 185550.000  -2448550.5353  -4668098.9237   3582741.2169   6   8   0.0323   0.0279   0.0261   0.0149  -0.0240  -0.0223   0.00    0.0
2121 185580.000  -2448550.5353  -4668098.9234   3582741.2166   6   7   0.0323   0.0279   0.0261   0.0149  -0.0239  -0.0223   0.00    0.0
2121 185610.000  -2448550.5350  -4668098.9230   3582741.2161   6   7   0.0322   0.0278   0.0260   0.0149  -0.0239  -0.0223   0.00    0.0
2121 185640.000  -2448550.5345  -4668098.9227   3582741.2154   6   7   0.0322   0.0278   0.0260   0.0149  -0.0239  -0.0222   0.00    0.0
2121 185670.000  -2448550.5332  -4668098.9221   3582741.2141   6   7   0.0322   0.0278   0.0259   0.0149  -0.0239  -0.0222   0.00    0.0
2121 185700.000  -2448550.5314  -4668098.9228   3582741.2128   6   7   0.0320   0.0276   0.0257   0.0148  -0.0236  -0.0220   0.00    0.0
2121 185730.000  -2448550.5309  -4668098.9229   3582741.2124   6   7   0.0319   0.0275   0.0256   0.0148  -0.0236  -0.0220   0.00    0.0
2121 185760.000  -2448550.5306  -4668098.9229   3582741.2120   6   7   0.0319   0.0275   0.0256   0.0148  -0.0236  -0.0219   0.00    0.0
2121 185790.000  -2448550.5304  -4668098.9227   3582741.2116   6   7   0.0319   0.0275   0.0255   0.0148  -0.0236  -0.0219   0.00    0.0
2121 185820.000  -2448550.5303  -4668098.9226   3582741.2114   6   7   0.0319   0.0275   0.0255   0.0148  -0.0236  -0.0219   0.00    0.0
2121 185850.000  -2448550.5303  -4668098.9227   3582741.2113   6   7   0.0318   0.0275   0.0255   0.0148  -0.0235  -0.0219   0.00    0.0
