%  GPST              x-ecef(m)      y-ecef(m)      z-ecef(m)   Q  ns   sdx(m)   sdy(m)   sdz(m)  sdxy(m)  sdyz(m)  sdzx(m) age(s)  ratio
2121 172800.000  -4460997.3747   2682556.6421  -3674442.2792   6   7   2.7573   1.7873   2.6191  -1.8118  -0.1375   1.5146   0.00    0.0
2121 172830.000  -4460997.6171   2682557.2586  -3674442.3201   6   7   1.8704   1.2306   1.7088  -1.2259  -0.1677   1.0065   0.00    0.0
2121 172860.000  -4460997.5664   2682557.2227  -3674442.1105   6   7   1.5117   0.9984   1.3624  -0.9899  -0.1822   0.8177   0.00    0.0
2121 172890.000  -4460997.6104   2682557.2615  -3674442.2747   6   7   1.3054   0.8635   1.1683  -0.8544  -0.1870   0.7128   0.00    0.0
2121 172920.000  -4460997.7279   2682557.2523  -3674442.2439   6   7   1.1680   0.7731   1.0407  -0.7642  -0.1889   0.6445   0.00    0.0
2121 172950.000  -4460997.7991   2682557.3315  -3674442.3071   6   7   1.0685   0.7074   0.9491  -0.6989  -0.1897   0.5958   0.00    0.0
2121 172980.000  -4460997.6779   2682557.1765  -3674442.3262   6   7   0.9792   0.6507   0.8579  -0.6402  -0.1943   0.5497   0.00    0.0
2121 173010.000  -4460997.5455   2682557.1298  -3674442.1903   6   7   0.8980   0.6008   0.7651  -0.5872  -0.2037   0.5060   0.00    0.0
2121 173040.000  -4460997.4437   2682557.1109  -3674442.1113   6   7   0.8243   0.5569   0.6703  -0.5401  -0.2163   0.4640   0.00    0.0
2121 173070.000  -4460997.1803   2682557.0131  -3674441.8918   6   7   0.7529   0.5178   0.5727  -0.4966  -0.2252   0.4198   0.00    0.0
2121 173100.000  -4460997.0095   2682557.0075  -3674441.6923   6   7   0.6698   0.4802   0.4788  -0.4484  -0.2202   0.3673   0.00    0.0
2121 173130.000  -4460997.0953   2682557.0648  -3674441.7105   6   7   0.6431   0.4611   0.4624  -0.4313  -0.2152   0.3572   0.00    0.0
2121 173160.000  -4460997.1283   2682557.0514  -3674441.7134   6   7   0.6227   0.4454   0.4515  -0.4179  -0.2113   0.3505   0.00    0.0
2121 173190.000  -4460997.1786   2682557.0792  -3674441.7164   6   7   0.6053   0.4316   0.4424  -0.4064  -0.2080   0.3449   0.00    0.0
2121 173220.000  -4460997.1577   2682557.0266  -3674441.7324   6   7   0.5898   0.4194   0.4344  -0.3963  -0.2051   0.3399   0.00    0.0
2121 173250.000  -4460997.1846   2682557.0498  -3674441.7712   6   7   0.5761   0.4085   0.4271  -0.3872  -0.2026   0.3354   0.00    0.0
2121 173280.000  -4460997.1907   2682557.0377  -3674441.7777   6   7   0.5612   0.3976   0.4179  -0.3774  -0.2005   0.3303   0.00    0.0
2121 173310.000  -4460997.1614   2682557.0318  -3674441.7548   6   7   0.5451   0.3865   0.4059  -0.3670  -0.1990   0.3242   0.00    0.0
2121 173340.000  -4460997.1234   2682557.0389  -3674441.6990   6   7   0.5273   0.3754   0.3895  -0.3562  -0.1984   0.3164   0.00    0.0
2121 173370.000  -4460997.1152   2682557.0607  -3674441.6884   6   7   0.5048   0.3640   0.3651  -0.3439  -0.1983   0.3045   0.00    0.0
2121 173400.000  -4460997.0860   2682557.0221  -3674441.7849   6   7   0.4668   0.3502   0.3256  -0.3255  -0.1972   0.2829   0.00    0.0
2121 173430.000  -4460997.1327   2682557.0303  -3674441.8295   6   7   0.4562   0.3428   0.3189  -0.3189  -0.1959   0.2795   0.00    0.0
2121 173460.000  -4460997.1288   2682557.0238  -3674441.8436   6   7   0.4485   0.3365   0.3150  -0.3138  -0.1946   0.2774   0.00    0.0
2121 173490.000  -4460997.1101   2682557.0154  -3674441.8554   6   7   0.4420   0.3309   0.3117  -0.3093  -0.1934   0.2756   0.00    0.0
2121 173520.000  -4460997.0864   2682556.9902  -3674441.8683   6   7   0.4361   0.3257   0.3089  -0.3053  -0.1923   0.2740   0.00    0.0
2121 173550.000  -4460997.1022   2682557.0022  -3674441.8822   6   7   0.4308   0.3210   0.3062  -0.3017  -0.1912   0.2725   0.00    0.0
2121 173580.000  -4460997.0936   2682556.9836  -3674441.8834   6   7   0.4250   0.3162   0.3030  -0.2978  -0.1903   0.2708   0.00    0.0
2121 173610.000  -4460997.0851   2682556.9678  -3674441.8884   6   7   0.4186   0.3112   0.2987  -0.2937  -0.1895   0.2687   0.00    0.0
2121 173640.000  -4460997.0852   2682556.9748  -3674441.8810   6   7   0.4112   0.3062   0.2925  -0.2894  -0.1890   0.2658   0.00    0.0
2121 173670.000  -4460997.0598   2682557.0127  -3674441.8770   6   7   0.4011   0.3010   0.2823  -0.2846  -0.1888   0.2611   0.00    0.0
2121 173700.000  -4460997.1131   2682557.0350  -3674441.9700   6   7   0.3817   0.2951   0.2605  -0.2778  -0.1894   0.2505   0.00    0.0
2121 173730.000  -4460997.1234   2682557.0372  -3674441.9958   6   7   0.3759   0.2911   0.2566  -0.2744  -0.1886   0.2485   0.00    0.0
2121 173760.000  -4460997.1386   2682557.0259  -3674442.0060   6   7   0.3717   0.2875   0.2544  -0.2716  -0.1878   0.2472   0.00    0.0
2121 173790.000  -4460997.1627   2682557.0433  -3674442.0223   6   7   0.3681   0.2843   0.2526  -0.2691  -0.1869   0.2461   0.00    0.0
2121 173820.000  -4460997.1695   2682557.0422  -3674442.0312   6   7   0.3650   0.2813   0.2510  -0.2668  -0.1860   0.2451   0.00    0.0
2121 173850.000  -4460997.1649   2682557.0395  -3674442.0449   6   7   0.3621   0.2785   0.2495  -0.2647  -0.1852   0.2441   0.00    0.0
2121 173880.000  -4460997.1783   2682557.0390  -3674442.0511   6   7   0.3589   0.2757   0.2478  -0.2625  -0.1844   0.2430   0.00    0.0
2121 173910.000  -4460997.1869   2682557.0372  -3674442.0524   6   7   0.3554   0.2727   0.2455  -0.2602  -0.1837   0.2417   0.00    0.0
2121 173940.000  -4460997.1881   2682557.0533  -3674442.0543   6   7   0.3513   0.2698   0.2423  -0.2578  -0.1831   0.2400   0.00    0.0
2121 173970.000  -4460997.1724   2682557.0688  -3674442.0460   6   7   0.3455   0.2668   0.2367  -0.2554  -0.1825   0.2372   0.00    0.0
2121 174000.000  -4460997.1838   2682557.0872  -3674442.1301   6   7   0.3338   0.2637   0.2215  -0.2528  -0.1822   0.2295   0.00    0.0
2121 174030.000  -4460997.1983   2682557.0769  -3674442.1483   6   7   0.3299   0.2611   0.2189  -0.2506  -0.1813   0.2279   0.00    0.0
2121 174060.000  -4460997.1927   2682557.0715  -3674442.1538   6   7   0.3271   0.2587   0.2173  -0.2486  -0.1805   0.2267   0.00    0.0
2121 174090.000  -4460997.1897   2682557.0792  -3674442.1614   6   7   0.3247   0.2564   0.2160  -0.2468  -0.1796   0.2257   0.00    0.0
2121 174120.000  -4460997.1794   2682557.0756  -3674442.1690   6   7   0.3225   0.2543   0.2149  -0.2451  -0.1788   0.2248   0.00    0.0
2121 174150.000  -4460997.1831   2682557.0812  -3674442.1788   6   7   0.3206   0.2524   0.2138  -0.2436  -0.1781   0.2240   0.00    0.0
2121 174180.000  -4460997.1839   2682557.0802  -3674442.1871   6   7   0.3184   0.2504   0.2126  -0.2420  -0.1773   0.2230   0.00    0.0
2121 174210.000  -4460997.1767   2682557.0731  -3674442.1890   6   7   0.3160   0.2483   0.2110  -0.2404  -0.1765   0.2219   0.00    0.0
2121 174240.000  -4460997.1715   2682557.0745  -3674442.1934   6   7   0.3132   0.2462   0.2088  -0.2386  -0.1757   0.2204   0.00    0.0
2121 174270.000  -4460997.1721   2682557.0732  -3674442.2009   6   7   0.3092   0.2440   0.2048  -0.2368  -0.1746   0.2179   0.00    0.0
2121 174300.000  -4460997.1837   2682557.0939  -3674442.2604   6   7   0.3002   0.2412   0.1923  -0.2347  -0.1722   0.2103   0.00    0.0
2121 174330.000  -4460997.1865   2682557.0999  -3674442.2759   6   7   0.2972   0.2391   0.1900  -0.2328  -0.1711   0.2085   0.00    0.0
2121 174360.000  -4460997.1991   2682557.1040  -3674442.2803   6   7   0.2950   0.2373   0.1887  -0.2312  -0.1702   0.2074   0.00    0.0
2121 174390.000  -4460997.2082   2682557.1004  -3674442.2849   6   7   0.2931   0.2355   0.1876  -0.2297  -0.1694   0.2064   0.00    0.0
2121 174420.000  -4460997.2029   2682557.0903  -3674442.2866   6   7   0.2914   0.2339   0.1867  -0.2283  -0.1686   0.2055   0.00    0.0
2121 174450.000  -4460997.2088   2682557.0925  -3674442.2937   6   7   0.2898   0.2324   0.1858  -0.2270  -0.1679   0.2047   0.00    0.0
2121 174480.000  -4460997.2070   2682557.0889  -3674442.2974   6   7   0.2881   0.2308   0.1848  -0.2257  -0.1671   0.2038   0.00    0.0
2121 174510.000  -4460997.2090   2682557.0948  -3674442.3005   6   7   0.2862   0.2292   0.1835  -0.2243  -0.1662   0.2027   0.00    0.0
2121 174540.000  -4460997.2096   2682557.0958  -3674442.2984   6   7   0.2838   0.2274   0.1818  -0.2227  -0.1652   0.2012   0.00    0.0
2121 174570.000  -4460997.2117   2682557.1127  -3674442.3010   6   7   0.2802   0.2252   0.1783  -0.2207  -0.1636   0.1985   0.00    0.0
2121 174600.000  -4460997.2279   2682557.1111  -3674442.3485   6   7   0.2710   0.2214   0.1670  -0.2169  -0.1590   0.1898   0.00    0.0
2121 174630.000  -4460997.2414   2682557.1245  -3674442.3644   6   7   0.2680   0.2194   0.1648  -0.2150  -0.1576   0.1879   0.00    0.0
2121 174660.000  -4460997.2284   2682557.1182  -3674442.3675   6   7   0.2660   0.2177   0.1636  -0.2134  -0.1567   0.1867   0.00    0.0
2121 174690.000  -4460997.2229   2682557.1198  -3674442.3707   6   7   0.2644   0.2163   0.1627  -0.2120  -0.1558   0.1858   0.00    0.0
2121 174720.000  -4460997.2263   2682557.1253  -3674442.3759   6   7   0.2629   0.2149   0.1618  -0.2108  -0.1551   0.1849   0.00    0.0
2121 174750.000  -4460997.2272   2682557.1258  -3674442.3824   6   7   0.2615   0.2136   0.1611  -0.2097  -0.1543   0.1841   0.00    0.0
2121 174780.000  -4460997.2283   2682557.1241  -3674442.3831   6   7   0.2600   0.2123   0.1602  -0.2084  -0.1535   0.1832   0.00    0.0
2121 174810.000  -4460997.2291   2682557.1214  -3674442.3841   6   7   0.2583   0.2108   0.1591  -0.2070  -0.1526   0.1821   0.00    0.0
2121 174840.000  -4460997.2310   2682557.1242  -3674442.3838   6   7   0.2560   0.2091   0.1575  -0.2054  -0.1514   0.1805   0.00    0.0
2121 174870.000  -4460997.2320   2682557.1266  -3674442.3883   6   7   0.2522   0.2066   0.1541  -0.2028  -0.1491   0.1774   0.00    0.0
2121 174900.000  -4460997.2514   2682557.1413  -3674442.4322   6   7   0.2412   0.2009   0.1432  -0.1965  -0.1424   0.1673   0.00    0.0
2121 174930.000  -4460997.2376   2682557.1200  -3674442.4297   6   7   0.2384   0.1990   0.1411  -0.1945  -0.1408   0.1652   0.00    0.0
2121 174960.000  -4460997.2314   2682557.1112  -3674442.4289   6   7   0.2366   0.1976   0.1400  -0.1931  -0.1398   0.1641   0.00    0.0
2121 174990.000  -4460997.2295   2682557.1088  -3674442.4361   6   7   0.2352   0.1963   0.1392  -0.1919  -0.1391   0.1632   0.00    0.0
2121 175020.000  -4460997.2236   2682557.0999  -3674442.4372   6   7   0.2339   0.1952   0.1384  -0.1908  -0.1383   0.1624   0.00    0.0
2121 175050.000  -4460997.2226   2682557.0985  -3674442.4395   6   7   0.2327   0.1941   0.1378  -0.1898  -0.1377   0.1616   0.00    0.0
2121 175080.000  -4460997.2227   2682557.0951  -3674442.4425   6   7   0.2314   0.1929   0.1370  -0.1887  -0.1369   0.1608   0.00    0.0
2121 175110.000  -4460997.2255   2682557.0990  -3674442.4489   6   7   0.2298   0.1916   0.1360  -0.1874  -0.1360   0.1597   0.00    0.0
2121 175140.000  -4460997.2296   2682557.0966  -3674442.4554   6   7   0.2277   0.1900   0.1345  -0.1857  -0.1348   0.1581   0.00    0.0
2121 175170.000  -4460997.2425   2682557.1000  -3674442.4654   6   8   0.2236   0.1872   0.1313  -0.1827  -0.1321   0.1547   0.00    0.0
2121 175200.000  -4460997.2513   2682557.1169  -3674442.4920   6   8   0.2115   0.1802   0.1209  -0.1746  -0.1241   0.1438   0.00    0.0
2121 175230.000  -4460997.2421   2682557.1139  -3674442.4896   6   8   0.2086   0.1781   0.1188  -0.1724  -0.1223   0.1416   0.00    0.0
2121 175260.000  -4460997.2427   2682557.1197  -3674442.4937   6   8   0.2069   0.1768   0.1178  -0.1710  -0.1214   0.1404   0.00    0.0
2121 175290.000  -4460997.2466   2682557.1242  -3674442.4994   6   8   0.2056   0.1756   0.1171  -0.1699  -0.1206   0.1396   0.00    0.0
2121 175320.000  -4460997.2481   2682557.1268  -3674442.5015   6   8   0.2045   0.1746   0.1165  -0.1688  -0.1200   0.1388   0.00    0.0
2121 175350.000  -4460997.2442   2682557.1239  -3674442.5048   6   8   0.2034   0.1736   0.1159  -0.1679  -0.1194   0.1382   0.00    0.0
2121 175380.000  -4460997.2416   2682557.1227  -3674442.5067   6   9   0.2022   0.1725   0.1152  -0.1668  -0.1186   0.1373   0.00    0.0
2121 175410.000  -4460997.2410   2682557.1203  -3674442.5096   6   8   0.2011   0.1716   0.1146  -0.1660  -0.1182   0.1367   0.00    0.0
2121 175440.000  -4460997.2394   2682557.1168  -3674442.5087   6   8   0.1996   0.1706   0.1139  -0.1650  -0.1176   0.1359   0.00    0.0
2121 175470.000  -4460997.2457   2682557.1260  -3674442.5126   6   8   0.1973   0.1692   0.1125  -0.1636  -0.1166   0.1343   0.00    0.0
2121 175500.000  -4460997.2477   2682557.1353  -3674442.5276   6   8   0.1913   0.1666   0.1081  -0.1609  -0.1142   0.1299   0.00    0.0
2121 175530.000  -4460997.2493   2682557.1386  -3674442.5282   6   8   0.1896   0.1654   0.1072  -0.1597  -0.1135   0.1288   0.00    0.0
2121 175560.000  -4460997.2492   2682557.1382  -3674442.5297   6   8   0.1885   0.1645   0.1067  -0.1588  -0.1130   0.1282   0.00    0.0
2121 175590.000  -4460997.2466   2682557.1359  -3674442.5295   6   8   0.1876   0.1637   0.1063  -0.1581  -0.1126   0.1277   0.00    0.0
2121 175620.000  -4460997.2466   2682557.1349  -3674442.5300   6   8   0.1867   0.1629   0.1059  -0.1574  -0.1122   0.1273   0.00    0.0
2121 175650.000  -4460997.2463   2682557.1335  -3674442.5328   6   8   0.1860   0.1622   0.1056  -0.1567  -0.1118   0.1269   0.00    0.0
2121 175680.000  -4460997.2453   2682557.1294  -3674442.5319   6   8   0.1852   0.1615   0.1052  -0.1561  -0.1114   0.1264   0.00    0.0
2121 175710.000  -4460997.2421   2682557.1252  -3674442.5318   6   8   0.1842   0.1607   0.1048  -0.1553  -0.1110   0.1259   0.00    0.0
2121 175740.000  -4460997.2398   2682557.1220  -3674442.5321   6   8   0.1830   0.1598   0.1042  -0.1544  -0.1104   0.1252   0.00    0.0
2121 175770.000  -4460997.2484   2682557.1253  -3674442.5356   6   8   0.1809   0.1585   0.1030  -0.1531  -0.1095   0.1238   0.00    0.0
2121 175800.000  -4460997.2680   2682557.1456  -3674442.5545   6   8   0.1755   0.1557   0.0991  -0.1503  -0.1071   0.1197   0.00    0.0
2121 175830.000  -4460997.2736   2682557.1451  -3674442.5557   6   8   0.1740   0.1546   0.0983  -0.1493  -0.1064   0.1188   0.00    0.0
2121 175860.000  -4460997.2768   2682557.1458  -3674442.5556   6   8   0.1731   0.1539   0.0979  -0.1485  -0.1060   0.1183   0.00    0.0
2121 175890.000  -4460997.2784   2682557.1438  -3674442.5533   6   8   0.1723   0.1532   0.0976  -0.1479  -0.1056   0.1179   0.00    0.0
2121 175920.000  -4460997.2769   2682557.1397  -3674442.5511   6   8   0.1716   0.1525   0.0973  -0.1473  -0.1053   0.1175   0.00    0.0
2121 175950.000  -4460997.2711   2682557.1322  -3674442.5493   6   8   0.1710   0.1520   0.0970  -0.1468  -0.1050   0.1172   0.00    0.0
2121 175980.000  -4460997.2726   2682557.1358  -3674442.5506   6   8   0.1703   0.1514   0.0967  -0.1462  -0.1047   0.1168   0.00    0.0
2121 176010.000  -4460997.2727   2682557.1356  -3674442.5516   6   8   0.1696   0.1507   0.0963  -0.1455  -0.1043   0.1164   0.00    0.0
2121 176040.000  -4460997.2719   2682557.1363  -3674442.5536   6   8   0.1686   0.1499   0.0958  -0.1448  -0.1038   0.1158   0.00    0.0
2121 176070.000  -4460997.2765   2682557.1394  -3674442.5584   6   8   0.1670   0.1488   0.0949  -0.1438  -0.1031   0.1147   0.00    0.0
2121 176100.000  -4460997.2814   2682557.1538  -3674442.5678   6   8   0.1625   0.1463   0.0917  -0.1413  -0.1010   0.1114   0.00    0.0
2121 176130.000  -4460997.2789   2682557.1531  -3674442.5686   6   8   0.1613   0.1454   0.0911  -0.1405  -0.1004   0.1107   0.00    0.0
2121 176160.000  -4460997.2762   2682557.1517  -3674442.5689   6   8   0.1605   0.1448   0.0907  -0.1399  -0.1001   0.1103   0.00    0.0
2121 176190.000  -4460997.2764   2682557.1524  -3674442.5706   6   8   0.1599   0.1442   0.0905  -0.1393  -0.0998   0.1099   0.00    0.0
2121 176220.000  -4460997.2757   2682557.1513  -3674442.5727   6   8   0.1594   0.1437   0.0902  -0.1389  -0.0995   0.1096   0.00    0.0
2121 176250.000  -4460997.2714   2682557.1478  -3674442.5720   6   8   0.1589   0.1432   0.0900  -0.1384  -0.0992   0.1094   0.00    0.0
2121 176280.000  -4460997.2691   2682557.1461  -3674442.5706   6   8   0.1583   0.1427   0.0898  -0.1380  -0.0990   0.1091   0.00    0.0
2121 176310.000  -4460997.2686   2682557.1438  -3674442.5709   6   8   0.1577   0.1421   0.0895  -0.1374  -0.0987   0.1087   0.00    0.0
2121 176340.000  -4460997.2698   2682557.1442  -3674442.5734   6   8   0.1570   0.1414   0.0891  -0.1369  -0.0983   0.1083   0.00    0.0
2121 176370.000  -4460997.2702   2682557.1428  -3674442.5731   6   8   0.1557   0.1405   0.0884  -0.1360  -0.0977   0.1075   0.00    0.0
2121 176400.000  -4460997.2734   2682557.1527  -3674442.5802   6   8   0.1521   0.1383   0.0859  -0.1340  -0.0960   0.1049   0.00    0.0
2121 176430.000  -4460997.2753   2682557.1563  -3674442.5835   6   8   0.1512   0.1375   0.0853  -0.1333  -0.0956   0.1044   0.00    0.0
2121 176460.000  -4460997.2794   2682557.1593  -3674442.5858   6   8   0.1506   0.1370   0.0851  -0.1328  -0.0953   0.1040   0.00    0.0
2121 176490.000  -4460997.2773   2682557.1560  -3674442.5858   6   8   0.1501   0.1365   0.0848  -0.1324  -0.0950   0.1038   0.00    0.0
2121 176520.000  -4460997.2801   2682557.1569  -3674442.5881   6   8   0.1497   0.1361   0.0847  -0.1320  -0.0948   0.1035   0.00    0.0
2121 176550.000  -4460997.2820   2682557.1575  -3674442.5893   6   8   0.1493   0.1356   0.0845  -0.1317  -0.0946   0.1033   0.00    0.0
2121 176580.000  -4460997.2851   2682557.1577  -3674442.5897   6   8   0.1489   0.1352   0.0843  -0.1313  -0.0944   0.1031   0.00    0.0
2121 176610.000  -4460997.2905   2682557.1584  -3674442.5926   6   8   0.1484   0.1347   0.0841  -0.1309  -0.0942   0.1028   0.00    0.0
2121 176640.000  -4460997.2957   2682557.1585  -3674442.5949   6   8   0.1478   0.1342   0.0838  -0.1304  -0.0939   0.1025   0.00    0.0
2121 176670.000  -4460997.2946   2682557.1501  -3674442.5963   6   8   0.1469   0.1334   0.0832  -0.1297  -0.0935   0.1019   0.00    0.0
2121 176700.000  -4460997.3037   2682557.1697  -3674442.6067   6   8   0.1440   0.1314   0.0813  -0.1280  -0.0921   0.1000   0.00    0.0
2121 176730.000  -4460997.3069   2682557.1749  -3674442.6075   6   8   0.1433   0.1308   0.0809  -0.1275  -0.0918   0.0996   0.00    0.0
2121 176760.000  -4460997.3057   2682557.1754  -3674442.6066   6   8   0.1428   0.1303   0.0807  -0.1271  -0.0915   0.0994   0.00    0.0
2121 176790.000  -4460997.3046   2682557.1740  -3674442.6053   6   8   0.1424   0.1299   0.0805  -0.1267  -0.0913   0.0992   0.00    0.0
2121 176820.000  -4460997.3053   2682557.1737  -3674442.6070   6   8   0.1421   0.1295   0.0804  -0.1264  -0.0911   0.0990   0.00    0.0
2121 176850.000  -4460997.3045   2682557.1740  -3674442.6068   6   8   0.1418   0.1292   0.0802  -0.1261  -0.0910   0.0988   0.00    0.0
2121 176880.000  -4460997.3030   2682557.1741  -3674442.6059   6   8   0.1415   0.1288   0.0801  -0.1258  -0.0908   0.0986   0.00    0.0
2121 176910.000  -4460997.3023   2682557.1726  -3674442.6066   6   8   0.1411   0.1284   0.0799  -0.1255  -0.0906   0.0984   0.00    0.0
2121 176940.000  -4460997.2990   2682557.1688  -3674442.6056   6   8   0.1406   0.1280   0.0797  -0.1251  -0.0904   0.0982   0.00    0.0
2121 176970.000  -4460997.2947   2682557.1658  -3674442.6048   6   8   0.1399   0.1273   0.0793  -0.1245  -0.0900   0.0978   0.00    0.0
2121 177000.000  -4460997.2920   2682557.1739  -3674442.6091   6   8   0.1376   0.1253   0.0779  -0.1230  -0.0889   0.0964   0.00    0.0
2121 177030.000  -4460997.2921   2682557.1779  -3674442.6101   6   8   0.1370   0.1248   0.0776  -0.1225  -0.0886   0.0960   0.00    0.0
2121 177060.000  -4460997.2884   2682557.1755  -3674442.6088   6   8   0.1367   0.1244   0.0774  -0.1222  -0.0885   0.0958   0.00    0.0
2121 177090.000  -4460997.2864   2682557.1742  -3674442.6081   6   8   0.1364   0.1240   0.0773  -0.1219  -0.0883   0.0957   0.00    0.0
2121 177120.000  -4460997.2811   2682557.1694  -3674442.6060   6   8   0.1361   0.1237   0.0771  -0.1217  -0.0881   0.0955   0.00    0.0
2121 177150.000  -4460997.2771   2682557.1648  -3674442.6053   6   8   0.1358   0.1234   0.0770  -0.1214  -0.0880   0.0954   0.00    0.0
2121 177180.000  -4460997.2751   2682557.1626  -3674442.6050   6   8   0.1356   0.1231   0.0769  -0.1211  -0.0878   0.0952   0.00    0.0
2121 177210.000  -4460997.2748   2682557.1595  -3674442.6056   6   8   0.1352   0.1227   0.0767  -0.1209  -0.0877   0.0951   0.00    0.0
2121 177240.000  -4460997.2754   2682557.1576  -3674442.6054   6   8   0.1349   0.1223   0.0765  -0.1205  -0.0875   0.0949   0.00    0.0
2121 177270.000  -4460997.2749   2682557.1573  -3674442.6057   6   8   0.1342   0.1217   0.0762  -0.1200  -0.0871   0.0945   0.00    0.0
2121 177300.000  -4460997.2685   2682557.1615  -3674442.6051   6   8   0.1323   0.1197   0.0752  -0.1185  -0.0861   0.0934   0.00    0.0
2121 177330.000  -4460997.2709   2682557.1618  -3674442.6052   6   8   0.1318   0.1191   0.0749  -0.1180  -0.0859   0.0931   0.00    0.0
2121 177360.000  -4460997.2685   2682557.1607  -3674442.6051   6   8   0.1314   0.1188   0.0747  -0.1177  -0.0857   0.0929   0.00    0.0
2121 177390.000  -4460997.2679   2682557.1616  -3674442.6046   6   8   0.1312   0.1185   0.0746  -0.1175  -0.0855   0.0928   0.00    0.0
2121 177420.000  -4460997.2659   2682557.1598  -3674442.6045   6   8   0.1309   0.1182   0.0745  -0.1172  -0.0854   0.0926   0.00    0.0
2121 177450.000  -4460997.2644   2682557.1588  -3674442.6042   6   8   0.1307   0.1179   0.0744  -0.1170  -0.0852   0.0925   0.00    0.0
2121 177480.000  -4460997.2654   2682557.1598  -3674442.6044   6   8   0.1305   0.1176   0.0742  -0.1168  -0.0851   0.0924   0.00    0.0
2121 177510.000  -4460997.2663   2682557.1628  -3674442.6056   6   8   0.1302   0.1173   0.0741  -0.1165  -0.0849   0.0922   0.00    0.0
2121 177540.000  -4460997.2666   2682557.1652  -3674442.6068   6   8   0.1299   0.1169   0.0739  -0.1162  -0.0847   0.0920   0.00    0.0
2121 177570.000  -4460997.2664   2682557.1675  -3674442.6076   6   8   0.1293   0.1162   0.0736  -0.1157  -0.0844   0.0917   0.00    0.0
2121 177600.000  -4460997.2623   2682557.1729  -3674442.6081   6   8   0.1272   0.1139   0.0726  -0.1138  -0.0831   0.0905   0.00    0.0
2121 177630.000  -4460997.2555   2682557.1702  -3674442.6075   6   8   0.1267   0.1133   0.0723  -0.1133  -0.0828   0.0902   0.00    0.0
2121 177660.000  -4460997.2518   2682557.1703  -3674442.6071   6   8   0.1264   0.1130   0.0722  -0.1130  -0.0827   0.0900   0.00    0.0
2121 177690.000  -4460997.2515   2682557.1725  -3674442.6085   6   8   0.1262   0.1127   0.0720  -0.1128  -0.0825   0.0899   0.00    0.0
2121 177720.000  -4460997.2523   2682557.1756  -3674442.6100   6   8   0.1259   0.1124   0.0719  -0.1126  -0.0824   0.0897   0.00    0.0
2121 177750.000  -4460997.2537   2682557.1785  -3674442.6113   6   8   0.1257   0.1122   0.0718  -0.1124  -0.0822   0.0896   0.00    0.0
2121 177780.000  -4460997.2553   2682557.1821  -3674442.6130   6   8   0.1255   0.1119   0.0716  -0.1121  -0.0821   0.0895   0.00    0.0
2121 177810.000  -4460997.2559   2682557.1853  -3674442.6143   6   8   0.1252   0.1116   0.0715  -0.1119  -0.0819   0.0893   0.00    0.0
2121 177840.000  -4460997.2590   2682557.1883  -3674442.6162   6   8   0.1249   0.1112   0.0713  -0.1115  -0.0816   0.0890   0.00    0.0
2121 177870.000  -4460997.2546   2682557.1868  -3674442.6155   6   8   0.1242   0.1104   0.0709  -0.1109  -0.0812   0.0886   0.00    0.0
2121 177900.000  -4460997.2461   2682557.1824  -3674442.6126   6   8   0.1217   0.1077   0.0697  -0.1085  -0.0796   0.0871   0.00    0.0
2121 177930.000  -4460997.2477   2682557.1852  -3674442.6142   6   8   0.1212   0.1071   0.0694  -0.1079  -0.0792   0.0868   0.00    0.0
2121 177960.000  -4460997.2476   2682557.1867  -3674442.6152   6   8   0.1209   0.1067   0.0692  -0.1076  -0.0790   0.0865   0.00    0.0
2121 177990.000  -4460997.2479   2682557.1865  -3674442.6157   6   8   0.1206   0.1064   0.0691  -0.1074  -0.0788   0.0864   0.00    0.0
2121 178020.000  -4460997.2510   2682557.1887  -3674442.6169   6   8   0.1204   0.1061   0.0689  -0.1071  -0.0786   0.0862   0.00    0.0
2121 178050.000  -4460997.2534   2682557.1907  -3674442.6183   6   8   0.1201   0.1059   0.0688  -0.1069  -0.0785   0.0860   0.00    0.0
2121 178080.000  -4460997.2559   2682557.1931  -3674442.6195   6   8   0.1199   0.1056   0.0686  -0.1066  -0.0783   0.0859   0.00    0.0
2121 178110.000  -4460997.2579   2682557.1940  -3674442.6201   6   8   0.1196   0.1053   0.0685  -0.1063  -0.0781   0.0856   0.00    0.0
2121 178140.000  -4460997.2610   2682557.1946  -3674442.6210   6   8   0.1191   0.1048   0.0682  -0.1059  -0.0777   0.0853   0.00    0.0
2121 178170.000  -4460997.2645   2682557.1994  -3674442.6235   6   8   0.1182   0.1039   0.0677  -0.1050  -0.0771   0.0847   0.00    0.0
2121 178200.000  -4460997.2480   2682557.1888  -3674442.6186   6   8   0.1150   0.1005   0.0661  -0.1019  -0.0749   0.0826   0.00    0.0
2121 178230.000  -4460997.2439   2682557.1881  -3674442.6185   6   8   0.1143   0.0998   0.0657  -0.1012  -0.0744   0.0821   0.00    0.0
2121 178260.000  -4460997.2446   2682557.1897  -3674442.6195   6   9   0.1139   0.0994   0.0655  -0.1008  -0.0741   0.0818   0.00    0.0
2121 178290.000  -4460997.2455   2682557.1909  -3674442.6210   6   9   0.1136   0.0990   0.0653  -0.1005  -0.0739   0.0816   0.00    0.0
2121 178320.000  -4460997.2444   2682557.1905  -3674442.6221   6   9   0.1133   0.0988   0.0651  -0.1002  -0.0737   0.0813   0.00    0.0
2121 178350.000  -4460997.2465   2682557.1930  -3674442.6239   6   9   0.1130   0.0985   0.0649  -0.1000  -0.0735   0.0812   0.00    0.0
2121 178380.000  -4460997.2473   2682557.1947  -3674442.6251   6   9   0.1127   0.0982   0.0647  -0.0997  -0.0733   0.0809   0.00    0.0
2121 178410.000  -4460997.2448   2682557.1937  -3674442.6247   6   9   0.1124   0.0978   0.0645  -0.0993  -0.0730   0.0806   0.00    0.0
2121 178440.000  -4460997.2432   2682557.1917  -3674442.6244   6   9   0.1118   0.0972   0.0641  -0.0987  -0.0726   0.0802   0.00    0.0
2121 178470.000  -4460997.2449   2682557.1936  -3674442.6259   6   9   0.1106   0.0961   0.0634  -0.0976  -0.0717   0.0793   0.00    0.0
2121 178500.000  -4460997.2456   2682557.1944  -3674442.6293   6   9   0.1065   0.0922   0.0613  -0.0936  -0.0688   0.0764   0.00    0.0
2121 178530.000  -4460997.2422   2682557.1897  -3674442.6279   6   9   0.1056   0.0913   0.0608  -0.0927  -0.0682   0.0757   0.00    0.0
2121 178560.000  -4460997.2383   2682557.1853  -3674442.6265   6   9   0.1051   0.0909   0.0605  -0.0923  -0.0678   0.0754   0.00    0.0
2121 178590.000  -4460997.2410   2682557.1875  -3674442.6283   6   9   0.1047   0.0905   0.0602  -0.0919  -0.0676   0.0751   0.00    0.0
2121 178620.000  -4460997.2435   2682557.1896  -3674442.6291   6   9   0.1044   0.0902   0.0600  -0.0916  -0.0673   0.0748   0.00    0.0
2121 178650.000  -4460997.2445   2682557.1910  -3674442.6302   6   9   0.1041   0.0899   0.0598  -0.0913  -0.0671   0.0746   0.00    0.0
2121 178680.000  -4460997.2446   2682557.1918  -3674442.6306   6   8   0.1038   0.0897   0.0596  -0.0911  -0.0669   0.0744   0.00    0.0
2121 178710.000  -4460997.2457   2682557.1939  -3674442.6315   6   8   0.1035   0.0893   0.0594  -0.0908  -0.0666   0.0741   0.00    0.0
2121 178740.000  -4460997.2450   2682557.1951  -3674442.6315   6   7   0.1031   0.0890   0.0592  -0.0904  -0.0664   0.0738   0.00    0.0
2121 178770.000  -4460997.2399   2682557.1922  -3674442.6296   6   7   0.1024   0.0883   0.0588  -0.0897  -0.0659   0.0733   0.00    0.0
2121 178800.000  -4460997.2357   2682557.1893  -3674442.6287   6   7   0.0998   0.0859   0.0578  -0.0873  -0.0644   0.0717   0.00    0.0
2121 178830.000  -4460997.2348   2682557.1871  -3674442.6278   6   7   0.0992   0.0854   0.0575  -0.0868  -0.0640   0.0713   0.00    0.0
2121 178860.000  -4460997.2360   2682557.1878  -3674442.6287   6   7   0.0989   0.0851   0.0573  -0.0865  -0.0638   0.0711   0.00    0.0
2121 178890.000  -4460997.2346   2682557.1864  -3674442.6281   6   7   0.0986   0.0848   0.0571  -0.0862  -0.0636   0.0709   0.00    0.0
2121 178920.000  -4460997.2357   2682557.1872  -3674442.6291   6   7   0.0983   0.0846   0.0570  -0.0860  -0.0634   0.0707   0.00    0.0
2121 178950.000  -4460997.2353   2682557.1869  -3674442.6292   6   7   0.0981   0.0844   0.0568  -0.0858  -0.0632   0.0705   0.00    0.0
2121 178980.000  -4460997.2354   2682557.1870  -3674442.6296   6   7   0.0978   0.0841   0.0566  -0.0855  -0.0631   0.0703   0.00    0.0
2121 179010.000  -4460997.2324   2682557.1856  -3674442.6284   6   7   0.0975   0.0839   0.0565  -0.0853  -0.0628   0.0701   0.00    0.0
2121 179040.000  -4460997.2276   2682557.1825  -3674442.6259   6   7   0.0971   0.0835   0.0562  -0.0849  -0.0626   0.0698   0.00    0.0
2121 179070.000  -4460997.2166   2682557.1741  -3674442.6205   6   7   0.0963   0.0828   0.0558  -0.0842  -0.0621   0.0692   0.00    0.0
2121 179100.000  -4460997.2116   2682557.1724  -3674442.6190   6   7   0.0936   0.0803   0.0547  -0.0816  -0.0604   0.0675   0.00    0.0
2121 179130.000  -4460997.2094   2682557.1717  -3674442.6183   6   7   0.0930   0.0798   0.0544  -0.0810  -0.0600   0.0670   0.00    0.0
2121 179160.000  -4460997.2095   2682557.1730  -3674442.6189   6   7   0.0926   0.0795   0.0541  -0.0807  -0.0597   0.0668   0.00    0.0
2121 179190.000  -4460997.2119   2682557.1769  -3674442.6208   6   7   0.0923   0.0792   0.0540  -0.0805  -0.0595   0.0665   0.00    0.0
2121 179220.000  -4460997.2109   2682557.1774  -3674442.6213   6   7   0.0921   0.0790   0.0538  -0.0802  -0.0594   0.0663   0.00    0.0
2121 179250.000  -4460997.2109   2682557.1774  -3674442.6217   6   7   0.0918   0.0788   0.0537  -0.0800  -0.0592   0.0662   0.00    0.0
2121 179280.000  -4460997.2120   2682557.1796  -3674442.6223   6   7   0.0916   0.0786   0.0535  -0.0798  -0.0590   0.0660   0.00    0.0
2121 179310.000  -4460997.2147   2682557.1829  -3674442.6235   6   7   0.0912   0.0783   0.0533  -0.0795  -0.0588   0.0657   0.00    0.0
2121 179340.000  -4460997.2140   2682557.1833  -3674442.6231   6   7   0.0908   0.0779   0.0531  -0.0791  -0.0585   0.0654   0.00    0.0
2121 179370.000  -4460997.2122   2682557.1833  -3674442.6222   6   7   0.0901   0.0773   0.0527  -0.0784  -0.0580   0.0649   0.00    0.0
2121 179400.000  -4460997.2136   2682557.1868  -3674442.6237   6   7   0.0873   0.0748   0.0515  -0.0758  -0.0563   0.0630   0.00    0.0
2121 179430.000  -4460997.2118   2682557.1850  -3674442.6233   6   7   0.0867   0.0743   0.0512  -0.0753  -0.0559   0.0626   0.00    0.0
2121 179460.000  -4460997.2114   2682557.1847  -3674442.6241   6   7   0.0863   0.0740   0.0509  -0.0750  -0.0556   0.0623   0.00    0.0
2121 179490.000  -4460997.2097   2682557.1831  -3674442.6236   6   7   0.0860   0.0738   0.0508  -0.0747  -0.0554   0.0621   0.00    0.0
2121 179520.000  -4460997.2100   2682557.1835  -3674442.6240   6   7   0.0858   0.0735   0.0506  -0.0745  -0.0553   0.0619   0.00    0.0
2121 179550.000  -4460997.2122   2682557.1852  -3674442.6259   6   7   0.0855   0.0734   0.0505  -0.0743  -0.0551   0.0617   0.00    0.0
2121 179580.000  -4460997.2135   2682557.1864  -3674442.6271   6   7   0.0853   0.0731   0.0503  -0.0740  -0.0549   0.0615   0.00    0.0
2121 179610.000  -4460997.2146   2682557.1877  -3674442.6279   6   7   0.0849   0.0729   0.0501  -0.0738  -0.0547   0.0613   0.00    0.0
2121 179640.000  -4460997.2161   2682557.1894  -3674442.6285   6   7   0.0845   0.0725   0.0499  -0.0734  -0.0544   0.0610   0.00    0.0
2121 179670.000  -4460997.2173   2682557.1909  -3674442.6292   6   7   0.0838   0.0719   0.0495  -0.0727  -0.0540   0.0605   0.00    0.0
2121 179700.000  -4460997.2191   2682557.1941  -3674442.6312   6   7   0.0811   0.0696   0.0483  -0.0702  -0.0523   0.0587   0.00    0.0
2121 179730.000  -4460997.2218   2682557.1986  -3674442.6338   6   7   0.0805   0.0691   0.0480  -0.0697  -0.0519   0.0583   0.00    0.0
2121 179760.000  -4460997.2250   2682557.2022  -3674442.6363   6   7   0.0802   0.0688   0.0478  -0.0694  -0.0517   0.0580   0.00    0.0
2121 179790.000  -4460997.2296   2682557.2063  -3674442.6392   6   8   0.0799   0.0686   0.0477  -0.0691  -0.0515   0.0578   0.00    0.0
2121 179820.000  -4460997.2308   2682557.2076  -3674442.6401   6   8   0.0797   0.0684   0.0475  -0.0689  -0.0513   0.0576   0.00    0.0
2121 179850.000  -4460997.2327   2682557.2093  -3674442.6416   6   8   0.0794   0.0682   0.0474  -0.0687  -0.0511   0.0574   0.00    0.0
2121 179880.000  -4460997.2351   2682557.2113  -3674442.6428   6   8   0.0792   0.0680   0.0472  -0.0685  -0.0510   0.0573   0.00    0.0
2121 179910.000  -4460997.2369   2682557.2130  -3674442.6436   6   8   0.0789   0.0678   0.0470  -0.0683  -0.0508   0.0570   0.00    0.0
2121 179940.000  -4460997.2375   2682557.2133  -3674442.6436   6   8   0.0785   0.0675   0.0468  -0.0679  -0.0505   0.0567   0.00    0.0
2121 179970.000  -4460997.2340   2682557.2094  -3674442.6414   6   8   0.0778   0.0669   0.0465  -0.0673  -0.0501   0.0562   0.00    0.0
2121 180000.000  -4460997.2268   2682557.2051  -3674442.6383   6   8   0.0753   0.0647   0.0454  -0.0649  -0.0485   0.0546   0.00    0.0
2121 180030.000  -4460997.2211   2682557.2004  -3674442.6363   6   8   0.0747   0.0643   0.0451  -0.0644  -0.0481   0.0542   0.00    0.0
2121 180060.000  -4460997.2198   2682557.1996  -3674442.6368   6   8   0.0744   0.0640   0.0449  -0.0642  -0.0479   0.0540   0.00    0.0
2121 180090.000  -4460997.2187   2682557.1988  -3674442.6371   6   8   0.0742   0.0638   0.0447  -0.0639  -0.0477   0.0538   0.00    0.0
2121 180120.000  -4460997.2188   2682557.1997  -3674442.6378   6   8   0.0739   0.0637   0.0446  -0.0637  -0.0476   0.0536   0.00    0.0
2121 180150.000  -4460997.2203   2682557.2014  -3674442.6393   6   8   0.0737   0.0635   0.0445  -0.0635  -0.0474   0.0534   0.00    0.0
2121 180180.000  -4460997.2221   2682557.2035  -3674442.6407   6   8   0.0735   0.0633   0.0443  -0.0633  -0.0473   0.0532   0.00    0.0
2121 180210.000  -4460997.2215   2682557.2029  -3674442.6406   6   8   0.0732   0.0631   0.0442  -0.0631  -0.0471   0.0530   0.00    0.0
2121 180240.000  -4460997.2217   2682557.2025  -3674442.6401   6   8   0.0728   0.0628   0.0440  -0.0628  -0.0468   0.0527   0.00    0.0
2121 180270.000  -4460997.2207   2682557.2002  -3674442.6386   6   8   0.0722   0.0623   0.0436  -0.0622  -0.0464   0.0523   0.00    0.0
2121 180300.000  -4460997.2159   2682557.1986  -3674442.6372   6   8   0.0698   0.0603   0.0426  -0.0600  -0.0449   0.0507   0.00    0.0
2121 180330.000  -4460997.2182   2682557.2009  -3674442.6383   6   8   0.0693   0.0599   0.0423  -0.0596  -0.0446   0.0503   0.00    0.0
2121 180360.000  -4460997.2183   2682557.2020  -3674442.6383   6   8   0.0690   0.0597   0.0421  -0.0593  -0.0444   0.0501   0.00    0.0
2121 180390.000  -4460997.2178   2682557.2020  -3674442.6383   6   8   0.0688   0.0595   0.0420  -0.0591  -0.0442   0.0499   0.00    0.0
2121 180420.000  -4460997.2183   2682557.2023  -3674442.6384   6   8   0.0685   0.0593   0.0418  -0.0589  -0.0441   0.0498   0.00    0.0
2121 180450.000  -4460997.2188   2682557.2023  -3674442.6385   6   8   0.0683   0.0592   0.0417  -0.0587  -0.0439   0.0496   0.00    0.0
2121 180480.000  -4460997.2168   2682557.2005  -3674442.6369   6   8   0.0681   0.0590   0.0416  -0.0586  -0.0438   0.0494   0.00    0.0
2121 180510.000  -4460997.2146   2682557.1984  -3674442.6354   6   8   0.0679   0.0588   0.0414  -0.0583  -0.0436   0.0493   0.00    0.0
2121 180540.000  -4460997.2106   2682557.1950  -3674442.6332   6   8   0.0676   0.0586   0.0413  -0.0581  -0.0434   0.0490   0.00    0.0
2121 180570.000  -4460997.2050   2682557.1899  -3674442.6296   6   8   0.0670   0.0581   0.0410  -0.0575  -0.0430   0.0486   0.00    0.0
2121 180600.000  -4460997.1992   2682557.1877  -3674442.6276   6   8   0.0648   0.0564   0.0400  -0.0556  -0.0417   0.0472   0.00    0.0
2121 180630.000  -4460997.1998   2682557.1876  -3674442.6280   6   8   0.0644   0.0560   0.0398  -0.0552  -0.0414   0.0468   0.00    0.0
2121 180660.000  -4460997.1996   2682557.1877  -3674442.6278   6   8   0.0641   0.0558   0.0396  -0.0549  -0.0412   0.0466   0.00    0.0
2121 180690.000  -4460997.2007   2682557.1892  -3674442.6289   6   8   0.0639   0.0556   0.0395  -0.0548  -0.0411   0.0465   0.00    0.0
2121 180720.000  -4460997.2029   2682557.1917  -3674442.6305   6   8   0.0637   0.0555   0.0394  -0.0546  -0.0409   0.0463   0.00    0.0
2121 180750.000  -4460997.2034   2682557.1926  -3674442.6310   6   8   0.0635   0.0554   0.0392  -0.0544  -0.0408   0.0462   0.00    0.0
2121 180780.000  -4460997.2039   2682557.1935  -3674442.6314   6   8   0.0633   0.0552   0.0391  -0.0543  -0.0407   0.0460   0.00    0.0
2121 180810.000  -4460997.2030   2682557.1932  -3674442.6312   6   8   0.0631   0.0550   0.0390  -0.0541  -0.0405   0.0459   0.00    0.0
2121 180840.000  -4460997.2029   2682557.1935  -3674442.6309   6   8   0.0628   0.0548   0.0388  -0.0538  -0.0403   0.0456   0.00    0.0
2121 180870.000  -4460997.2018   2682557.1930  -3674442.6308   6   8   0.0623   0.0544   0.0386  -0.0534  -0.0400   0.0453   0.00    0.0
2121 180900.000  -4460997.1957   2682557.1902  -3674442.6285   6   8   0.0604   0.0529   0.0377  -0.0516  -0.0388   0.0440   0.00    0.0
2121 180930.000  -4460997.1945   2682557.1893  -3674442.6289   6   8   0.0600   0.0526   0.0375  -0.0513  -0.0385   0.0437   0.00    0.0
2121 180960.000  -4460997.1932   2682557.1884  -3674442.6284   6   8   0.0597   0.0524   0.0373  -0.0511  -0.0384   0.0435   0.00    0.0
2121 180990.000  -4460997.1924   2682557.1883  -3674442.6283   6   8   0.0596   0.0523   0.0372  -0.0509  -0.0382   0.0434   0.00    0.0
2121 181020.000  -4460997.1898   2682557.1864  -3674442.6269   6   8   0.0594   0.0521   0.0371  -0.0508  -0.0381   0.0432   0.00    0.0
2121 181050.000  -4460997.1897   2682557.1865  -3674442.6272   6   8   0.0592   0.0520   0.0370  -0.0506  -0.0380   0.0431   0.00    0.0
2121 181080.000  -4460997.1875   2682557.1847  -3674442.6262   6   8   0.0591   0.0519   0.0369  -0.0505  -0.0379   0.0430   0.00    0.0
2121 181110.000  -4460997.1857   2682557.1831  -3674442.6253   6   8   0.0589   0.0517   0.0368  -0.0503  -0.0378   0.0428   0.00    0.0
2121 181140.000  -4460997.1849   2682557.1824  -3674442.6242   6   8   0.0586   0.0515   0.0367  -0.0501  -0.0376   0.0427   0.00    0.0
2121 181170.000  -4460997.1839   2682557.1815  -3674442.6231   6   8   0.0581   0.0512   0.0364  -0.0497  -0.0373   0.0423   0.00    0.0
2121 181200.000  -4460997.1850   2682557.1850  -3674442.6245   6   8   0.0564   0.0498   0.0356  -0.0481  -0.0362   0.0412   0.00    0.0
2121 181230.000  -4460997.1848   2682557.1857  -3674442.6240   6   8   0.0561   0.0495   0.0354  -0.0478  -0.0360   0.0409   0.00    0.0
2121 181260.000  -4460997.1841   2682557.1854  -3674442.6235   6   8   0.0559   0.0494   0.0353  -0.0476  -0.0358   0.0407   0.00    0.0
2121 181290.000  -4460997.1826   2682557.1844  -3674442.6228   6   8   0.0557   0.0492   0.0352  -0.0475  -0.0357   0.0406   0.00    0.0
2121 181320.000  -4460997.1825   2682557.1850  -3674442.6228   6   8   0.0555   0.0491   0.0351  -0.0473  -0.0356   0.0405   0.00    0.0
2121 181350.000  -4460997.1802   2682557.1832  -3674442.6219   6   8   0.0554   0.0490   0.0350  -0.0472  -0.0355   0.0404   0.00    0.0
2121 181380.000  -4460997.1784   2682557.1819  -3674442.6212   6   8   0.0553   0.0489   0.0349  -0.0471  -0.0354   0.0403   0.00    0.0
2121 181410.000  -4460997.1768   2682557.1802  -3674442.6211   6   8   0.0551   0.0488   0.0348  -0.0469  -0.0353   0.0402   0.00    0.0
2121 181440.000  -4460997.1724   2682557.1762  -3674442.6196   6   8   0.0549   0.0486   0.0347  -0.0467  -0.0351   0.0400   0.00    0.0
2121 181470.000  -4460997.1727   2682557.1766  -3674442.6200   6   9   0.0544   0.0483   0.0345  -0.0464  -0.0348   0.0397   0.00    0.0
2121 181500.000  -4460997.1718   2682557.1785  -3674442.6203   6   9   0.0530   0.0471   0.0338  -0.0450  -0.0339   0.0387   0.00    0.0
2121 181530.000  -4460997.1700   2682557.1771  -3674442.6198   6   9   0.0526   0.0469   0.0336  -0.0447  -0.0337   0.0384   0.00    0.0
2121 181560.000  -4460997.1693   2682557.1767  -3674442.6197   6   9   0.0524   0.0467   0.0335  -0.0445  -0.0335   0.0383   0.00    0.0
2121 181590.000  -4460997.1678   2682557.1759  -3674442.6192   6   9   0.0523   0.0466   0.0334  -0.0444  -0.0334   0.0382   0.00    0.0
2121 181620.000  -4460997.1672   2682557.1757  -3674442.6191   6   9   0.0521   0.0465   0.0333  -0.0443  -0.0333   0.0381   0.00    0.0
2121 181650.000  -4460997.1679   2682557.1762  -3674442.6199   6   9   0.0520   0.0464   0.0333  -0.0442  -0.0333   0.0380   0.00    0.0
2121 181680.000  -4460997.1673   2682557.1761  -3674442.6199   6   9   0.0519   0.0463   0.0332  -0.0441  -0.0332   0.0379   0.00    0.0
2121 181710.000  -4460997.1654   2682557.1752  -3674442.6189   6   8   0.0518   0.0462   0.0331  -0.0440  -0.0331   0.0378   0.00    0.0
2121 181740.000  -4460997.1632   2682557.1741  -3674442.6180   6   8   0.0516   0.0461   0.0330  -0.0439  -0.0330   0.0377   0.00    0.0
2121 181770.000  -4460997.1603   2682557.1727  -3674442.6163   6   8   0.0514   0.0460   0.0329  -0.0437  -0.0329   0.0376   0.00    0.0
2121 181800.000  -4460997.1576   2682557.1724  -3674442.6155   6   8   0.0508   0.0456   0.0325  -0.0432  -0.0325   0.0371   0.00    0.0
2121 181830.000  -4460997.1570   2682557.1722  -3674442.6158   6   8   0.0506   0.0455   0.0324  -0.0431  -0.0324   0.0370   0.00    0.0
2121 181860.000  -4460997.1575   2682557.1724  -3674442.6163   6   8   0.0505   0.0454   0.0323  -0.0430  -0.0323   0.0369   0.00    0.0
2121 181890.000  -4460997.1583   2682557.1735  -3674442.6172   6   8   0.0504   0.0453   0.0322  -0.0429  -0.0322   0.0368   0.00    0.0
2121 181920.000  -4460997.1593   2682557.1745  -3674442.6182   6   8   0.0503   0.0453   0.0322  -0.0429  -0.0322   0.0368   0.00    0.0
2121 181950.000  -4460997.1596   2682557.1752  -3674442.6189   6   8   0.0502   0.0452   0.0321  -0.0428  -0.0321   0.0367   0.00    0.0
2121 181980.000  -4460997.1604   2682557.1763  -3674442.6196   6   8   0.0501   0.0452   0.0321  -0.0427  -0.0321   0.0366   0.00    0.0
2121 182010.000  -4460997.1598   2682557.1759  -3674442.6198   6   8   0.0500   0.0451   0.0320  -0.0427  -0.0320   0.0366   0.00    0.0
2121 182040.000  -4460997.1588   2682557.1745  -3674442.6187   6   8   0.0499   0.0450   0.0319  -0.0426  -0.0319   0.0365   0.00    0.0
2121 182070.000  -4460997.1576   2682557.1729  -3674442.6177   6   8   0.0497   0.0449   0.0318  -0.0424  -0.0318   0.0363   0.00    0.0
2121 182100.000  -4460997.1565   2682557.1741  -3674442.6167   6   8   0.0492   0.0446   0.0315  -0.0420  -0.0315   0.0360   0.00    0.0
2121 182130.000  -4460997.1571   2682557.1745  -3674442.6165   6   8   0.0491   0.0445   0.0314  -0.0419  -0.0314   0.0359   0.00    0.0
2121 182160.000  -4460997.1581   2682557.1753  -3674442.6173   6   8   0.0490   0.0444   0.0313  -0.0418  -0.0314   0.0358   0.00    0.0
2121 182190.000  -4460997.1589   2682557.1761  -3674442.6181   6   8   0.0489   0.0443   0.0313  -0.0418  -0.0313   0.0357   0.00    0.0
2121 182220.000  -4460997.1591   2682557.1767  -3674442.6182   6   8   0.0488   0.0443   0.0312  -0.0417  -0.0313   0.0357   0.00    0.0
2121 182250.000  -4460997.1592   2682557.1771  -3674442.6186   6   8   0.0487   0.0442   0.0312  -0.0417  -0.0312   0.0356   0.00    0.0
2121 182280.000  -4460997.1590   2682557.1777  -3674442.6187   6   8   0.0487   0.0442   0.0311  -0.0416  -0.0312   0.0356   0.00    0.0
2121 182310.000  -4460997.1587   2682557.1776  -3674442.6186   6   8   0.0486   0.0441   0.0311  -0.0416  -0.0311   0.0355   0.00    0.0
2121 182340.000  -4460997.1578   2682557.1771  -3674442.6180   6   8   0.0485   0.0441   0.0310  -0.0415  -0.0311   0.0354   0.00    0.0
2121 182370.000  -4460997.1561   2682557.1763  -3674442.6165   6   8   0.0484   0.0440   0.0309  -0.0414  -0.0310   0.0353   0.00    0.0
2121 182400.000  -4460997.1539   2682557.1769  -3674442.6157   6   8   0.0479   0.0436   0.0306  -0.0410  -0.0307   0.0350   0.00    0.0
2121 182430.000  -4460997.1525   2682557.1765  -3674442.6146   6   8   0.0478   0.0436   0.0305  -0.0409  -0.0307   0.0349   0.00    0.0
2121 182460.000  -4460997.1510   2682557.1754  -3674442.6134   6   8   0.0477   0.0435   0.0305  -0.0409  -0.0306   0.0349   0.00    0.0
2121 182490.000  -4460997.1499   2682557.1751  -3674442.6129   6   8   0.0476   0.0435   0.0304  -0.0408  -0.0306   0.0348   0.00    0.0
2121 182520.000  -4460997.1498   2682557.1752  -3674442.6129   6   8   0.0476   0.0434   0.0304  -0.0408  -0.0305   0.0348   0.00    0.0
2121 182550.000  -4460997.1490   2682557.1748  -3674442.6128   6   8   0.0475   0.0434   0.0304  -0.0407  -0.0305   0.0348   0.00    0.0
2121 182580.000  -4460997.1496   2682557.1755  -3674442.6135   6   8   0.0475   0.0433   0.0303  -0.0407  -0.0304   0.0347   0.00    0.0
2121 182610.000  -4460997.1492   2682557.1757  -3674442.6134   6   8   0.0474   0.0433   0.0303  -0.0406  -0.0304   0.0347   0.00    0.0
2121 182640.000  -4460997.1492   2682557.1757  -3674442.6139   6   8   0.0473   0.0432   0.0302  -0.0406  -0.0303   0.0346   0.00    0.0
2121 182670.000  -4460997.1498   2682557.1761  -3674442.6135   6   8   0.0472   0.0431   0.0301  -0.0405  -0.0303   0.0345   0.00    0.0
2121 182700.000  -4460997.1476   2682557.1768  -3674442.6131   6   8   0.0468   0.0428   0.0299  -0.0402  -0.0300   0.0343   0.00    0.0
2121 182730.000  -4460997.1461   2682557.1760  -3674442.6123   6   8   0.0467   0.0427   0.0298  -0.0401  -0.0300   0.0342   0.00    0.0
2121 182760.000  -4460997.1457   2682557.1757  -3674442.6120   6   8   0.0467   0.0427   0.0297  -0.0400  -0.0299   0.0341   0.00    0.0
2121 182790.000  -4460997.1455   2682557.1753  -3674442.6116   6   8   0.0466   0.0426   0.0297  -0.0400  -0.0299   0.0341   0.00    0.0
2121 182820.000  -4460997.1455   2682557.1751  -3674442.6113   6   8   0.0466   0.0426   0.0297  -0.0400  -0.0299   0.0341   0.00    0.0
2121 182850.000  -4460997.1453   2682557.1750  -3674442.6112   6   8   0.0465   0.0426   0.0296  -0.0399  -0.0298   0.0340   0.00    0.0
2121 182880.000  -4460997.1439   2682557.1740  -3674442.6107   6   8   0.0465   0.0425   0.0296  -0.0399  -0.0298   0.0340   0.00    0.0
2121 182910.000  -4460997.1425   2682557.1728  -3674442.6102   6   8   0.0464   0.0425   0.0296  -0.0398  -0.0298   0.0339   0.00    0.0
2121 182940.000  -4460997.1416   2682557.1717  -3674442.6099   6   8   0.0463   0.0424   0.0295  -0.0398  -0.0297   0.0339   0.00    0.0
2121 182970.000  -4460997.1418   2682557.1720  -3674442.6096   6   8   0.0462   0.0423   0.0294  -0.0397  -0.0296   0.0338   0.00    0.0
2121 183000.000  -4460997.1406   2682557.1723  -3674442.6106   6   8   0.0459   0.0420   0.0292  -0.0394  -0.0294   0.0336   0.00    0.0
2121 183030.000  -4460997.1393   2682557.1714  -3674442.6107   6   8   0.0458   0.0419   0.0291  -0.0393  -0.0294   0.0335   0.00    0.0
2121 183060.000  -4460997.1390   2682557.1707  -3674442.6112   6   8   0.0457   0.0419   0.0291  -0.0393  -0.0293   0.0335   0.00    0.0
2121 183090.000  -4460997.1389   2682557.1706  -3674442.6114   6   8   0.0457   0.0418   0.0290  -0.0392  -0.0293   0.0334   0.00    0.0
2121 183120.000  -4460997.1380   2682557.1702  -3674442.6117   6   8   0.0456   0.0418   0.0290  -0.0392  -0.0293   0.0334   0.00    0.0
2121 183150.000  -4460997.1377   2682557.1706  -3674442.6120   6   8   0.0456   0.0418   0.0290  -0.0392  -0.0292   0.0334   0.00    0.0
2121 183180.000  -4460997.1390   2682557.1714  -3674442.6127   6   8   0.0456   0.0417   0.0289  -0.0391  -0.0292   0.0333   0.00    0.0
2121 183210.000  -4460997.1396   2682557.1719  -3674442.6130   6   8   0.0455   0.0417   0.0289  -0.0391  -0.0292   0.0333   0.00    0.0
2121 183240.000  -4460997.1397   2682557.1718  -3674442.6133   6   8   0.0454   0.0416   0.0288  -0.0390  -0.0291   0.0333   0.00    0.0
2121 183270.000  -4460997.1392   2682557.1724  -3674442.6132   6   8   0.0453   0.0415   0.0288  -0.0389  -0.0290   0.0332   0.00    0.0
2121 183300.000  -4460997.1368   2682557.1725  -3674442.6132   6   8   0.0450   0.0412   0.0285  -0.0386  -0.0288   0.0329   0.00    0.0
2121 183330.000  -4460997.1365   2682557.1722  -3674442.6135   6   8   0.0449   0.0411   0.0284  -0.0385  -0.0287   0.0328   0.00    0.0
2121 183360.000  -4460997.1365   2682557.1722  -3674442.6139   6   8   0.0448   0.0410   0.0284  -0.0384  -0.0287   0.0328   0.00    0.0
2121 183390.000  -4460997.1367   2682557.1726  -3674442.6142   6   8   0.0448   0.0410   0.0283  -0.0384  -0.0286   0.0327   0.00    0.0
2121 183420.000  -4460997.1361   2682557.1726  -3674442.6141   6   7   0.0447   0.0410   0.0283  -0.0384  -0.0286   0.0327   0.00    0.0
2121 183450.000  -4460997.1358   2682557.1729  -3674442.6143   6   7   0.0447   0.0409   0.0283  -0.0383  -0.0286   0.0327   0.00    0.0
2121 183480.000  -4460997.1360   2682557.1735  -3674442.6143   6   7   0.0446   0.0409   0.0282  -0.0383  -0.0285   0.0326   0.00    0.0
2121 183510.000  -4460997.1369   2682557.1743  -3674442.6148   6   7   0.0446   0.0408   0.0282  -0.0383  -0.0285   0.0326   0.00    0.0
2121 183540.000  -4460997.1377   2682557.1749  -3674442.6147   6   7   0.0445   0.0408   0.0282  -0.0382  -0.0285   0.0326   0.00    0.0
2121 183570.000  -4460997.1387   2682557.1766  -3674442.6143   6   7   0.0444   0.0407   0.0281  -0.0381  -0.0284   0.0325   0.00    0.0
2121 183600.000  -4460997.1359   2682557.1753  -3674442.6135   6   7   0.0440   0.0403   0.0277  -0.0377  -0.0281   0.0321   0.00    0.0
2121 183630.000  -4460997.1351   2682557.1748  -3674442.6129   6   7   0.0439   0.0402   0.0276  -0.0376  -0.0280   0.0320   0.00    0.0
2121 183660.000  -4460997.1356   2682557.1754  -3674442.6130   6   6   0.0438   0.0401   0.0276  -0.0375  -0.0279   0.0320   0.00    0.0
2121 183690.000  -4460997.1359   2682557.1759  -3674442.6130   6   7   0.0438   0.0401   0.0276  -0.0375  -0.0279   0.0320   0.00    0.0
2121 183720.000  -4460997.1357   2682557.1760  -3674442.6129   6   7   0.0437   0.0400   0.0276  -0.0375  -0.0279   0.0319   0.00    0.0
2121 183750.000  -4460997.1354   2682557.1761  -3674442.6128   6   7   0.0437   0.0400   0.0275  -0.0374  -0.0278   0.0319   0.00    0.0
2121 183780.000  -4460997.1352   2682557.1764  -3674442.6128   6   7   0.0437   0.0399   0.0275  -0.0374  -0.0278   0.0319   0.00    0.0
2121 183810.000  -4460997.1350   2682557.1766  -3674442.6129   6   7   0.0436   0.0399   0.0275  -0.0374  -0.0278   0.0318   0.00    0.0
2121 183840.000  -4460997.1347   2682557.1762  -3674442.6127   6   7   0.0436   0.0398   0.0274  -0.0373  -0.0277   0.0318   0.00    0.0
2121 183870.000  -4460997.1340   2682557.1759  -3674442.6124   6   7   0.0435   0.0397   0.0274  -0.0372  -0.0277   0.0317   0.00    0.0
2121 183900.000  -4460997.1332   2682557.1767  -3674442.6127   6   7   0.0431   0.0394   0.0272  -0.0369  -0.0275   0.0315   0.00    0.0
2121 183930.000  -4460997.1332   2682557.1773  -3674442.6126   6   7   0.0431   0.0393   0.0272  -0.0368  -0.0274   0.0315   0.00    0.0
2121 183960.000  -4460997.1335   2682557.1777  -3674442.6128   6   7   0.0430   0.0392   0.0271  -0.0367  -0.0274   0.0314   0.00    0.0
2121 183990.000  -4460997.1338   2682557.1782  -3674442.6131   6   7   0.0430   0.0392   0.0271  -0.0367  -0.0273   0.0314   0.00    0.0
2121 184020.000  -4460997.1342   2682557.1789  -3674442.6137   6   7   0.0429   0.0391   0.0271  -0.0367  -0.0273   0.0314   0.00    0.0
2121 184050.000  -4460997.1346   2682557.1797  -3674442.6142   6   7   0.0429   0.0391   0.0271  -0.0366  -0.0273   0.0314   0.00    0.0
2121 184080.000  -4460997.1349   2682557.1804  -3674442.6146   6   7   0.0429   0.0391   0.0270  -0.0366  -0.0272   0.0313   0.00    0.0
2121 184110.000  -4460997.1356   2682557.1813  -3674442.6150   6   7   0.0428   0.0390   0.0270  -0.0365  -0.0272   0.0313   0.00    0.0
2121 184140.000  -4460997.1352   2682557.1808  -3674442.6144   6   7   0.0428   0.0390   0.0270  -0.0365  -0.0272   0.0313   0.00    0.0
2121 184170.000  -4460997.1338   2682557.1797  -3674442.6132   6   7   0.0427   0.0388   0.0269  -0.0364  -0.0271   0.0312   0.00    0.0
2121 184200.000  -4460997.1337   2682557.1801  -3674442.6134   6   7   0.0423   0.0384   0.0268  -0.0360  -0.0269   0.0310   0.00    0.0
2121 184230.000  -4460997.1337   2682557.1802  -3674442.6137   6   7   0.0422   0.0383   0.0267  -0.0359  -0.0268   0.0309   0.00    0.0
2121 184260.000  -4460997.1342   2682557.1809  -3674442.6141   6   7   0.0422   0.0383   0.0267  -0.0359  -0.0268   0.0309   0.00    0.0
2121 184290.000  -4460997.1345   2682557.1812  -3674442.6143   6   7   0.0421   0.0382   0.0267  -0.0358  -0.0267   0.0309   0.00    0.0
2121 184320.000  -4460997.1348   2682557.1818  -3674442.6146   6   7   0.0421   0.0382   0.0266  -0.0358  -0.0267   0.0308   0.00    0.0
2121 184350.000  -4460997.1349   2682557.1822  -3674442.6148   6   7   0.0420   0.0381   0.0266  -0.0357  -0.0267   0.0308   0.00    0.0
2121 184380.000  -4460997.1353   2682557.1828  -3674442.6153   6   7   0.0420   0.0381   0.0266  -0.0357  -0.0267   0.0308   0.00    0.0
2121 184410.000  -4460997.1355   2682557.1834  -3674442.6157   6   7   0.0420   0.0381   0.0266  -0.0357  -0.0266   0.0308   0.00    0.0
2121 184440.000  -4460997.1355   2682557.1838  -3674442.6157   6   7   0.0419   0.0380   0.0265  -0.0356  -0.0266   0.0307   0.00    0.0
2121 184470.000  -4460997.1339   2682557.1829  -3674442.6149   6   7   0.0418   0.0379   0.0265  -0.0355  -0.0265   0.0307   0.00    0.0
2121 184500.000  -4460997.1310   2682557.1815  -3674442.6136   6   7   0.0414   0.0374   0.0263  -0.0351  -0.0262   0.0304   0.00    0.0
2121 184530.000  -4460997.1306   2682557.1815  -3674442.6136   6   7   0.0413   0.0373   0.0263  -0.0350  -0.0262   0.0304   0.00    0.0
2121 184560.000  -4460997.1307   2682557.1819  -3674442.6140   6   7   0.0413   0.0373   0.0262  -0.0349  -0.0262   0.0303   0.00    0.0
2121 184590.000  -4460997.1308   2682557.1821  -3674442.6144   6   7   0.0412   0.0372   0.0262  -0.0349  -0.0261   0.0303   0.00    0.0
2121 184620.000  -4460997.1309   2682557.1821  -3674442.6146   6   7   0.0412   0.0372   0.0262  -0.0348  -0.0261   0.0303   0.00    0.0
2121 184650.000  -4460997.1309   2682557.1823  -3674442.6149   6   8   0.0412   0.0371   0.0262  -0.0348  -0.0261   0.0302   0.00    0.0
2121 184680.000  -4460997.1301   2682557.1818  -3674442.6149   6   8   0.0411   0.0371   0.0261  -0.0348  -0.0260   0.0302   0.00    0.0
2121 184710.000  -4460997.1291   2682557.1808  -3674442.6146   6   8   0.0411   0.0370   0.0261  -0.0347  -0.0260   0.0302   0.00    0.0
2121 184740.000  -4460997.1279   2682557.1795  -3674442.6143   6   9   0.0410   0.0370   0.0261  -0.0347  -0.0260   0.0302   0.00    0.0
2121 184770.000  -4460997.1261   2682557.1777  -3674442.6138   6   9   0.0409   0.0368   0.0260  -0.0346  -0.0259   0.0301   0.00    0.0
2121 184800.000  -4460997.1238   2682557.1765  -3674442.6126   6   9   0.0405   0.0364   0.0258  -0.0341  -0.0256   0.0299   0.00    0.0
2121 184830.000  -4460997.1232   2682557.1762  -3674442.6124   6   9   0.0405   0.0363   0.0258  -0.0340  -0.0256   0.0298   0.00    0.0
2121 184860.000  -4460997.1229   2682557.1761  -3674442.6124   6   9   0.0404   0.0362   0.0258  -0.0340  -0.0255   0.0298   0.00    0.0
2121 184890.000  -4460997.1227   2682557.1761  -3674442.6126   6   9   0.0404   0.0362   0.0257  -0.0339  -0.0255   0.0297   0.00    0.0
2121 184920.000  -4460997.1225   2682557.1760  -3674442.6124   6   9   0.0403   0.0361   0.0257  -0.0339  -0.0255   0.0297   0.00    0.0
2121 184950.000  -4460997.1220   2682557.1758  -3674442.6121   6   9   0.0403   0.0361   0.0257  -0.0339  -0.0254   0.0297   0.00    0.0
2121 184980.000  -4460997.1220   2682557.1762  -3674442.6121   6   9   0.0403   0.0360   0.0257  -0.0338  -0.0254   0.0297   0.00    0.0
2121 185010.000  -4460997.1217   2682557.1759  -3674442.6117   6   9   0.0402   0.0360   0.0257  -0.0338  -0.0254   0.0296   0.00    0.0
2121 185040.000  -4460997.1214   2682557.1756  -3674442.6112   6   9   0.0402   0.0359   0.0256  -0.0337  -0.0253   0.0296   0.00    0.0
2121 185070.000  -4460997.1195   2682557.1741  -3674442.6103   6   9   0.0401   0.0358   0.0256  -0.0336  -0.0253   0.0295   0.00    0.0
2121 185100.000  -4460997.1186   2682557.1746  -3674442.6101   6   9   0.0397   0.0353   0.0254  -0.0331  -0.0250   0.0293   0.00    0.0
2121 185130.000  -4460997.1188   2682557.1753  -3674442.6105   6   9   0.0396   0.0352   0.0253  -0.0330  -0.0249   0.0292   0.00    0.0
2121 185160.000  -4460997.1192   2682557.1759  -3674442.6109   6   9   0.0395   0.0351   0.0253  -0.0330  -0.0249   0.0292   0.00    0.0
2121 185190.000  -4460997.1196   2682557.1765  -3674442.6115   6   9   0.0395   0.0351   0.0253  -0.0329  -0.0249   0.0292   0.00    0.0
2121 185220.000  -4460997.1197   2682557.1770  -3674442.6118   6   9   0.0395   0.0350   0.0253  -0.0329  -0.0248   0.0291   0.00    0.0
2121 185250.000  -4460997.1202   2682557.1775  -3674442.6123   6   9   0.0394   0.0350   0.0252  -0.0329  -0.0248   0.0291   0.00    0.0
2121 185280.000  -4460997.1203   2682557.1776  -3674442.6125   6   9   0.0394   0.0350   0.0252  -0.0328  -0.0248   0.0291   0.00    0.0
2121 185310.000  -4460997.1204   2682557.1780  -3674442.6129   6   9   0.0393   0.0349   0.0252  -0.0328  -0.0247   0.0291   0.00    0.0
2121 185340.000  -4460997.1198   2682557.1779  -3674442.6125   6   9   0.0393   0.0348   0.0252  -0.0327  -0.0247   0.0290   0.00    0.0
2121 185370.000  -4460997.1190   2682557.1778  -3674442.6121   6   9   0.0392   0.0347   0.0251  -0.0326  -0.0246   0.0290   0.00    0.0
2121 185400.000  -4460997.1151   2682557.1753  -3674442.6103   6   9   0.0388   0.0342   0.0249  -0.0321  -0.0243   0.0287   0.00    0.0
2121 185430.000  -4460997.1148   2682557.1753  -3674442.6104   6   9   0.0387   0.0341   0.0249  -0.0320  -0.0243   0.0286   0.00    0.0
2121 185460.000  -4460997.1143   2682557.1752  -3674442.6102   6   9   0.0387   0.0341   0.0248  -0.0320  -0.0242   0.0286   0.00    0.0
2121 185490.000  -4460997.1144   2682557.1755  -3674442.6104   6   9   0.0386   0.0340   0.0248  -0.0320  -0.0242   0.0286   0.00    0.0
2121 185520.000  -4460997.1145   2682557.1758  -3674442.6106   6   9   0.0386   0.0340   0.0248  -0.0319  -0.0242   0.0286   0.00    0.0
2121 185550.000  -4460997.1148   2682557.1763  -3674442.6108   6   9   0.0385   0.0339   0.0248  -0.0319  -0.0241   0.0285   0.00    0.0
2121 185580.000  -4460997.1148   2682557.1763  -3674442.6107   6   9   0.0385   0.0339   0.0247  -0.0318  -0.0241   0.0285   0.00    0.0
2121 185610.000  -4460997.1147   2682557.1768  -3674442.6105   6   9   0.0385   0.0338   0.0247  -0.0318  -0.0241   0.0285   0.00    0.0
2121 185640.000  -4460997.1148   2682557.1772  -3674442.6103   6   9   0.0384   0.0337   0.0247  -0.0317  -0.0240   0.0285   0.00    0.0
2121 185670.000  -4460997.1146   2682557.1777  -3674442.6098   6   9   0.0383   0.0336   0.0246  -0.0316  -0.0240   0.0284   0.00    0.0
2121 185700.000  -4460997.1102   2682557.1739  -3674442.6081   6   9   0.0379   0.0331   0.0244  -0.0312  -0.0237   0.0281   0.00    0.0
2121 185730.000  -4460997.1093   2682557.1731  -3674442.6076   6   9   0.0378   0.0330   0.0244  -0.0311  -0.0236   0.0281   0.00    0.0
2121 185760.000  -4460997.1090   2682557.1728  -3674442.6077   6   9   0.0378   0.0330   0.0243  -0.0310  -0.0236   0.0280   0.00    0.0
2121 185790.000  -4460997.1096   2682557.1734  -3674442.6082   6   9   0.0378   0.0329   0.0243  -0.0310  -0.0235   0.0280   0.00    0.0
2121 185820.000  -4460997.1104   2682557.1739  -3674442.6087   6   9   0.0377   0.0329   0.0243  -0.0309  -0.0235   0.0280   0.00    0.0
2121 185850.000  -4460997.1108   2682557.1745  -3674442.6093   6   9   0.0377   0.0328   0.0243  -0.0309  -0.0235   0.0280   0.00    0.0
