%  GPST              x-ecef(m)      y-ecef(m)      z-ecef(m)   Q  ns   sdx(m)   sdy(m)   sdz(m)  sdxy(m)  sdyz(m)  sdzx(m) age(s)  ratio
2121 172800.000  -2994428.9651   4951309.0349   2674496.3728   6   8   1.7796   2.5647   2.0822  -1.7100   1.6494  -0.8302   0.00    0.0
2121 172830.000  -2994429.1840   4951308.9792   2674496.2201   6   8   1.2144   1.7282   1.3906  -1.1372   1.1005  -0.5513   0.00    0.0
2121 172860.000  -2994429.1643   4951309.0408   2674496.3565   6   8   0.9839   1.3969   1.1209  -0.9156   0.8925  -0.4527   0.00    0.0
2121 172890.000  -2994429.0960   4951308.7974   2674496.2892   6   8   0.8517   1.2083   0.9678  -0.7912   0.7756  -0.3987   0.00    0.0
2121 172920.000  -2994429.0635   4951308.8848   2674496.4263   6   8   0.7639   1.0837   0.8666  -0.7096   0.6989  -0.3637   0.00    0.0
2121 172950.000  -2994429.0918   4951308.7868   2674496.4226   6   8   0.7006   0.9941   0.7936  -0.6513   0.6440  -0.3391   0.00    0.0
2121 172980.000  -2994429.1351   4951308.7803   2674496.4235   6   8   0.6439   0.9133   0.7267  -0.5962   0.5951  -0.3183   0.00    0.0
2121 173010.000  -2994429.0456   4951308.6613   2674496.4462   6   8   0.5915   0.8400   0.6640  -0.5437   0.5529  -0.3033   0.00    0.0
2121 173040.000  -2994428.9937   4951308.6209   2674496.4968   6   8   0.5418   0.7727   0.6033  -0.4930   0.5173  -0.2945   0.00    0.0
2121 173070.000  -2994428.8840   4951308.5521   2674496.4299   6   8   0.4923   0.7058   0.5385  -0.4407   0.4818  -0.2876   0.00    0.0
2121 173100.000  -2994428.9433   4951308.6836   2674496.5288   6   8   0.4421   0.6319   0.4643  -0.3843   0.4331  -0.2732   0.00    0.0
2121 173130.000  -2994428.9386   4951308.5713   2674496.4658   6   8   0.4258   0.6107   0.4492  -0.3732   0.4202  -0.2665   0.00    0.0
2121 173160.000  -2994428.9382   4951308.5358   2674496.4501   6   8   0.4136   0.5949   0.4386  -0.3660   0.4109  -0.2613   0.00    0.0
2121 173190.000  -2994428.9295   4951308.5308   2674496.4226   6   8   0.4030   0.5813   0.4296  -0.3599   0.4029  -0.2568   0.00    0.0
2121 173220.000  -2994428.9486   4951308.5360   2674496.3962   6   8   0.3937   0.5692   0.4217  -0.3545   0.3959  -0.2529   0.00    0.0
2121 173250.000  -2994428.9519   4951308.5166   2674496.3763   6   8   0.3854   0.5585   0.4145  -0.3496   0.3896  -0.2493   0.00    0.0
2121 173280.000  -2994428.9595   4951308.5239   2674496.3914   6   8   0.3765   0.5471   0.4064  -0.3436   0.3831  -0.2458   0.00    0.0
2121 173310.000  -2994428.9391   4951308.5613   2674496.4260   6   8   0.3668   0.5348   0.3970  -0.3363   0.3762  -0.2423   0.00    0.0
2121 173340.000  -2994428.9012   4951308.5831   2674496.4616   6   8   0.3554   0.5213   0.3853  -0.3270   0.3691  -0.2390   0.00    0.0
2121 173370.000  -2994428.8338   4951308.5731   2674496.5266   6   8   0.3405   0.5044   0.3681  -0.3138   0.3601  -0.2357   0.00    0.0
2121 173400.000  -2994428.7683   4951308.6161   2674496.4971   6   8   0.3164   0.4771   0.3371  -0.2911   0.3416  -0.2289   0.00    0.0
2121 173430.000  -2994428.7236   4951308.6107   2674496.4753   6   8   0.3095   0.4692   0.3315  -0.2865   0.3371  -0.2263   0.00    0.0
2121 173460.000  -2994428.7095   4951308.5829   2674496.4755   6   8   0.3046   0.4632   0.3279  -0.2837   0.3338  -0.2243   0.00    0.0
2121 173490.000  -2994428.7010   4951308.5578   2674496.4676   6   8   0.3005   0.4579   0.3248  -0.2815   0.3309  -0.2225   0.00    0.0
2121 173520.000  -2994428.6974   4951308.5283   2674496.4672   6   8   0.2967   0.4531   0.3220  -0.2795   0.3282  -0.2209   0.00    0.0
2121 173550.000  -2994428.6810   4951308.5118   2674496.4620   6   8   0.2933   0.4487   0.3194  -0.2776   0.3258  -0.2194   0.00    0.0
2121 173580.000  -2994428.6700   4951308.4935   2674496.4667   6   8   0.2895   0.4439   0.3164  -0.2753   0.3231  -0.2177   0.00    0.0
2121 173610.000  -2994428.6343   4951308.4720   2674496.4673   6   8   0.2850   0.4387   0.3127  -0.2723   0.3201  -0.2158   0.00    0.0
2121 173640.000  -2994428.5932   4951308.4515   2674496.4713   6   8   0.2795   0.4324   0.3076  -0.2680   0.3165  -0.2133   0.00    0.0
2121 173670.000  -2994428.5567   4951308.4336   2674496.4521   6   8   0.2707   0.4236   0.2988  -0.2604   0.3108  -0.2092   0.00    0.0
2121 173700.000  -2994428.5521   4951308.4776   2674496.4446   6   8   0.2513   0.4037   0.2771  -0.2415   0.2952  -0.1986   0.00    0.0
2121 173730.000  -2994428.5354   4951308.4851   2674496.4456   6   8   0.2463   0.3981   0.2732  -0.2375   0.2917  -0.1959   0.00    0.0
2121 173760.000  -2994428.5318   4951308.5015   2674496.4419   6   8   0.2432   0.3942   0.2708  -0.2354   0.2893  -0.1943   0.00    0.0
2121 173790.000  -2994428.5325   4951308.4954   2674496.4315   6   8   0.2407   0.3908   0.2689  -0.2337   0.2873  -0.1930   0.00    0.0
2121 173820.000  -2994428.5214   4951308.4956   2674496.4217   6   8   0.2385   0.3877   0.2672  -0.2323   0.2854  -0.1918   0.00    0.0
2121 173850.000  -2994428.5170   4951308.5089   2674496.4206   6   8   0.2364   0.3847   0.2655  -0.2310   0.2837  -0.1907   0.00    0.0
2121 173880.000  -2994428.4952   4951308.4898   2674496.4148   6   8   0.2341   0.3815   0.2636  -0.2293   0.2818  -0.1893   0.00    0.0
2121 173910.000  -2994428.4784   4951308.4774   2674496.4078   6   8   0.2312   0.3778   0.2611  -0.2269   0.2793  -0.1875   0.00    0.0
2121 173940.000  -2994428.4801   4951308.4752   2674496.4064   6   8   0.2272   0.3730   0.2573  -0.2233   0.2760  -0.1848   0.00    0.0
2121 173970.000  -2994428.4867   4951308.4879   2674496.4112   6   8   0.2198   0.3649   0.2501  -0.2159   0.2698  -0.1795   0.00    0.0
2121 174000.000  -2994428.5151   4951308.5503   2674496.4205   6   8   0.1998   0.3430   0.2287  -0.1937   0.2508  -0.1637   0.00    0.0
2121 174030.000  -2994428.5183   4951308.5446   2674496.4067   6   8   0.1958   0.3381   0.2253  -0.1897   0.2473  -0.1608   0.00    0.0
2121 174060.000  -2994428.5246   4951308.5430   2674496.4094   6   8   0.1936   0.3350   0.2233  -0.1879   0.2452  -0.1593   0.00    0.0
2121 174090.000  -2994428.5370   4951308.5379   2674496.4149   6   8   0.1919   0.3323   0.2218  -0.1865   0.2435  -0.1582   0.00    0.0
2121 174120.000  -2994428.5460   4951308.5357   2674496.4157   6   8   0.1904   0.3299   0.2204  -0.1854   0.2420  -0.1572   0.00    0.0
2121 174150.000  -2994428.5506   4951308.5214   2674496.4131   6   8   0.1890   0.3277   0.2192  -0.1843   0.2405  -0.1563   0.00    0.0
2121 174180.000  -2994428.5575   4951308.5159   2674496.4119   6   8   0.1874   0.3252   0.2177  -0.1830   0.2389  -0.1552   0.00    0.0
2121 174210.000  -2994428.5587   4951308.5075   2674496.4070   6   7   0.1855   0.3225   0.2159  -0.1814   0.2370  -0.1538   0.00    0.0
2121 174240.000  -2994428.5483   4951308.5114   2674496.4021   6   7   0.1829   0.3190   0.2131  -0.1788   0.2344  -0.1517   0.00    0.0
2121 174270.000  -2994428.5306   4951308.5124   2674496.4039   6   7   0.1777   0.3129   0.2074  -0.1732   0.2292  -0.1472   0.00    0.0
2121 174300.000  -2994428.5569   4951308.5936   2674496.4447   6   7   0.1625   0.2947   0.1892  -0.1551   0.2123  -0.1331   0.00    0.0
2121 174330.000  -2994428.5749   4951308.6143   2674496.4625   6   7   0.1595   0.2908   0.1863  -0.1519   0.2093  -0.1306   0.00    0.0
2121 174360.000  -2994428.5799   4951308.6246   2674496.4687   6   6   0.1581   0.2888   0.1850  -0.1508   0.2079  -0.1298   0.00    0.0
2121 174390.000  -2994428.5796   4951308.6217   2674496.4720   6   6   0.1571   0.2872   0.1840  -0.1501   0.2068  -0.1291   0.00    0.0
2121 174420.000  -2994428.5777   4951308.6156   2674496.4743   6   6   0.1562   0.2856   0.1831  -0.1494   0.2059  -0.1285   0.00    0.0
2121 174450.000  -2994428.5766   4951308.6181   2674496.4796   6   6   0.1554   0.2842   0.1823  -0.1488   0.2050  -0.1280   0.00    0.0
2121 174480.000  -2994428.5734   4951308.6106   2674496.4788   6   6   0.1544   0.2827   0.1813  -0.1481   0.2039  -0.1274   0.00    0.0
2121 174510.000  -2994428.5762   4951308.6124   2674496.4754   6   6   0.1533   0.2809   0.1801  -0.1472   0.2027  -0.1265   0.00    0.0
2121 174540.000  -2994428.5798   4951308.6145   2674496.4678   6   6   0.1516   0.2787   0.1783  -0.1456   0.2010  -0.1252   0.00    0.0
2121 174570.000  -2994428.5848   4951308.6306   2674496.4623   6   6   0.1485   0.2750   0.1747  -0.1425   0.1979  -0.1226   0.00    0.0
2121 174600.000  -2994428.5963   4951308.6824   2674496.4769   6   6   0.1392   0.2639   0.1624  -0.1322   0.1872  -0.1141   0.00    0.0
2121 174630.000  -2994428.6036   4951308.6867   2674496.4824   6   6   0.1374   0.2615   0.1604  -0.1305   0.1854  -0.1127   0.00    0.0
2121 174660.000  -2994428.6012   4951308.6813   2674496.4790   6   6   0.1365   0.2600   0.1594  -0.1298   0.1843  -0.1120   0.00    0.0
2121 174690.000  -2994428.5948   4951308.6713   2674496.4752   6   6   0.1357   0.2587   0.1586  -0.1292   0.1834  -0.1114   0.00    0.0
2121 174720.000  -2994428.5865   4951308.6682   2674496.4714   6   6   0.1351   0.2575   0.1578  -0.1287   0.1826  -0.1110   0.00    0.0
2121 174750.000  -2994428.5825   4951308.6726   2674496.4708   6   6   0.1345   0.2564   0.1572  -0.1283   0.1819  -0.1106   0.00    0.0
2121 174780.000  -2994428.5811   4951308.6687   2674496.4690   6   6   0.1338   0.2552   0.1564  -0.1278   0.1811  -0.1101   0.00    0.0
2121 174810.000  -2994428.5785   4951308.6668   2674496.4699   6   6   0.1330   0.2538   0.1555  -0.1270   0.1801  -0.1094   0.00    0.0
2121 174840.000  -2994428.5734   4951308.6655   2674496.4719   6   6   0.1318   0.2520   0.1540  -0.1259   0.1787  -0.1084   0.00    0.0
2121 174870.000  -2994428.5714   4951308.6713   2674496.4652   6   6   0.1294   0.2491   0.1513  -0.1235   0.1762  -0.1063   0.00    0.0
2121 174900.000  -2994428.5830   4951308.7158   2674496.4842   6   6   0.1220   0.2399   0.1414  -0.1151   0.1673  -0.0991   0.00    0.0
2121 174930.000  -2994428.5882   4951308.7224   2674496.4873   6   6   0.1206   0.2379   0.1398  -0.1137   0.1658  -0.0980   0.00    0.0
2121 174960.000  -2994428.5917   4951308.7274   2674496.4883   6   6   0.1198   0.2366   0.1389  -0.1131   0.1649  -0.0974   0.00    0.0
2121 174990.000  -2994428.5917   4951308.7284   2674496.4866   6   6   0.1193   0.2356   0.1382  -0.1126   0.1641  -0.0969   0.00    0.0
2121 175020.000  -2994428.5875   4951308.7222   2674496.4816   6   6   0.1188   0.2346   0.1376  -0.1122   0.1634  -0.0965   0.00    0.0
2121 175050.000  -2994428.5848   4951308.7320   2674496.4835   6   6   0.1183   0.2336   0.1370  -0.1118   0.1628  -0.0962   0.00    0.0
2121 175080.000  -2994428.5818   4951308.7323   2674496.4828   6   6   0.1178   0.2326   0.1363  -0.1114   0.1621  -0.0957   0.00    0.0
2121 175110.000  -2994428.5781   4951308.7335   2674496.4851   6   6   0.1171   0.2315   0.1355  -0.1108   0.1612  -0.0951   0.00    0.0
2121 175140.000  -2994428.5726   4951308.7314   2674496.4852   6   6   0.1162   0.2300   0.1343  -0.1098   0.1601  -0.0943   0.00    0.0
2121 175170.000  -2994428.5663   4951308.7410   2674496.4805   6   6   0.1144   0.2275   0.1320  -0.1078   0.1578  -0.0925   0.00    0.0
2121 175200.000  -2994428.5751   4951308.7654   2674496.4907   6   6   0.1084   0.2191   0.1234  -0.1004   0.1499  -0.0861   0.00    0.0
2121 175230.000  -2994428.5746   4951308.7592   2674496.4889   6   6   0.1072   0.2173   0.1220  -0.0991   0.1484  -0.0850   0.00    0.0
2121 175260.000  -2994428.5716   4951308.7560   2674496.4873   6   6   0.1066   0.2162   0.1212  -0.0985   0.1476  -0.0844   0.00    0.0
2121 175290.000  -2994428.5703   4951308.7532   2674496.4875   6   6   0.1061   0.2152   0.1206  -0.0981   0.1469  -0.0840   0.00    0.0
2121 175320.000  -2994428.5710   4951308.7541   2674496.4876   6   6   0.1057   0.2144   0.1201  -0.0977   0.1463  -0.0836   0.00    0.0
2121 175350.000  -2994428.5703   4951308.7472   2674496.4845   6   6   0.1053   0.2136   0.1196  -0.0973   0.1457  -0.0833   0.00    0.0
2121 175380.000  -2994428.5683   4951308.7429   2674496.4822   6   6   0.1049   0.2127   0.1190  -0.0969   0.1451  -0.0829   0.00    0.0
2121 175410.000  -2994428.5644   4951308.7434   2674496.4799   6   6   0.1043   0.2116   0.1183  -0.0963   0.1443  -0.0824   0.00    0.0
2121 175440.000  -2994428.5596   4951308.7445   2674496.4766   6   6   0.1035   0.2103   0.1172  -0.0954   0.1433  -0.0816   0.00    0.0
2121 175470.000  -2994428.5551   4951308.7501   2674496.4730   6   6   0.1020   0.2079   0.1151  -0.0935   0.1411  -0.0799   0.00    0.0
2121 175500.000  -2994428.5704   4951308.7778   2674496.4906   6   6   0.0968   0.1998   0.1076  -0.0861   0.1336  -0.0738   0.00    0.0
2121 175530.000  -2994428.5635   4951308.7800   2674496.4882   6   6   0.0957   0.1980   0.1063  -0.0847   0.1322  -0.0727   0.00    0.0
2121 175560.000  -2994428.5582   4951308.7767   2674496.4835   6   6   0.0952   0.1970   0.1056  -0.0841   0.1314  -0.0722   0.00    0.0
2121 175590.000  -2994428.5601   4951308.7696   2674496.4808   6   6   0.0947   0.1961   0.1050  -0.0836   0.1308  -0.0718   0.00    0.0
2121 175620.000  -2994428.5635   4951308.7743   2674496.4830   6   6   0.0944   0.1953   0.1045  -0.0833   0.1302  -0.0714   0.00    0.0
2121 175650.000  -2994428.5669   4951308.7780   2674496.4851   6   6   0.0940   0.1946   0.1041  -0.0829   0.1297  -0.0711   0.00    0.0
2121 175680.000  -2994428.5695   4951308.7804   2674496.4873   6   6   0.0936   0.1938   0.1036  -0.0825   0.1292  -0.0707   0.00    0.0
2121 175710.000  -2994428.5669   4951308.7801   2674496.4870   6   6   0.0931   0.1929   0.1029  -0.0819   0.1284  -0.0702   0.00    0.0
2121 175740.000  -2994428.5601   4951308.7734   2674496.4795   6   6   0.0924   0.1916   0.1020  -0.0809   0.1274  -0.0694   0.00    0.0
2121 175770.000  -2994428.5497   4951308.7657   2674496.4691   6   6   0.0910   0.1891   0.1001  -0.0787   0.1253  -0.0677   0.00    0.0
2121 175800.000  -2994428.5515   4951308.7829   2674496.4789   6   6   0.0859   0.1806   0.0931  -0.0702   0.1178  -0.0614   0.00    0.0
2121 175830.000  -2994428.5506   4951308.7771   2674496.4760   6   6   0.0849   0.1789   0.0919  -0.0687   0.1164  -0.0602   0.00    0.0
2121 175860.000  -2994428.5521   4951308.7722   2674496.4738   6   6   0.0844   0.1779   0.0913  -0.0681   0.1157  -0.0597   0.00    0.0
2121 175890.000  -2994428.5538   4951308.7689   2674496.4732   6   6   0.0840   0.1771   0.0908  -0.0676   0.1151  -0.0593   0.00    0.0
2121 175920.000  -2994428.5584   4951308.7683   2674496.4749   6   6   0.0837   0.1764   0.0904  -0.0672   0.1147  -0.0590   0.00    0.0
2121 175950.000  -2994428.5616   4951308.7725   2674496.4776   6   5   0.0834   0.1759   0.0900  -0.0669   0.1143  -0.0587   0.00    0.0
2121 175980.000  -2994428.5619   4951308.7782   2674496.4819   6   5   0.0831   0.1754   0.0897  -0.0666   0.1139  -0.0584   0.00    0.0
2121 176010.000  -2994428.5592   4951308.7806   2674496.4844   6   5   0.0827   0.1748   0.0893  -0.0662   0.1135  -0.0581   0.00    0.0
2121 176040.000  -2994428.5601   4951308.7802   2674496.4871   6   5   0.0822   0.1741   0.0887  -0.0656   0.1129  -0.0576   0.00    0.0
2121 176070.000  -2994428.5631   4951308.7904   2674496.4911   6   5   0.0812   0.1728   0.0876  -0.0642   0.1119  -0.0565   0.00    0.0
2121 176100.000  -2994428.5773   4951308.8132   2674496.5066   6   5   0.0776   0.1687   0.0837  -0.0590   0.1081  -0.0526   0.00    0.0
2121 176130.000  -2994428.5793   4951308.8172   2674496.5092   6   5   0.0770   0.1678   0.0830  -0.0581   0.1074  -0.0519   0.00    0.0
2121 176160.000  -2994428.5785   4951308.8176   2674496.5093   6   5   0.0766   0.1672   0.0826  -0.0577   0.1070  -0.0516   0.00    0.0
2121 176190.000  -2994428.5792   4951308.8171   2674496.5106   6   5   0.0763   0.1667   0.0822  -0.0574   0.1067  -0.0513   0.00    0.0
2121 176220.000  -2994428.5806   4951308.8146   2674496.5104   6   6   0.0761   0.1663   0.0819  -0.0572   0.1063  -0.0511   0.00    0.0
2121 176250.000  -2994428.5797   4951308.8086   2674496.5075   6   6   0.0758   0.1658   0.0817  -0.0570   0.1060  -0.0509   0.00    0.0
2121 176280.000  -2994428.5794   4951308.8055   2674496.5058   6   6   0.0756   0.1654   0.0814  -0.0567   0.1057  -0.0507   0.00    0.0
2121 176310.000  -2994428.5796   4951308.8054   2674496.5067   6   6   0.0753   0.1648   0.0810  -0.0564   0.1053  -0.0504   0.00    0.0
2121 176340.000  -2994428.5797   4951308.8098   2674496.5075   6   6   0.0748   0.1642   0.0805  -0.0559   0.1048  -0.0499   0.00    0.0
2121 176370.000  -2994428.5777   4951308.8166   2674496.5071   6   6   0.0741   0.1632   0.0797  -0.0548   0.1040  -0.0491   0.00    0.0
2121 176400.000  -2994428.5838   4951308.8398   2674496.5186   6   6   0.0712   0.1600   0.0765  -0.0504   0.1010  -0.0459   0.00    0.0
2121 176430.000  -2994428.5855   4951308.8486   2674496.5251   6   6   0.0707   0.1592   0.0759  -0.0497   0.1004  -0.0453   0.00    0.0
2121 176460.000  -2994428.5858   4951308.8493   2674496.5272   6   6   0.0704   0.1587   0.0756  -0.0493   0.1001  -0.0450   0.00    0.0
2121 176490.000  -2994428.5860   4951308.8468   2674496.5295   6   6   0.0701   0.1583   0.0753  -0.0491   0.0998  -0.0448   0.00    0.0
2121 176520.000  -2994428.5857   4951308.8446   2674496.5302   6   6   0.0699   0.1579   0.0750  -0.0489   0.0995  -0.0446   0.00    0.0
2121 176550.000  -2994428.5862   4951308.8435   2674496.5307   6   6   0.0697   0.1575   0.0748  -0.0488   0.0992  -0.0445   0.00    0.0
2121 176580.000  -2994428.5871   4951308.8431   2674496.5307   6   6   0.0695   0.1571   0.0745  -0.0485   0.0989  -0.0443   0.00    0.0
2121 176610.000  -2994428.5901   4951308.8453   2674496.5318   6   6   0.0692   0.1567   0.0742  -0.0483   0.0986  -0.0440   0.00    0.0
2121 176640.000  -2994428.5936   4951308.8483   2674496.5341   6   6   0.0689   0.1562   0.0738  -0.0479   0.0982  -0.0437   0.00    0.0
2121 176670.000  -2994428.5938   4951308.8500   2674496.5335   6   6   0.0682   0.1553   0.0731  -0.0469   0.0975  -0.0430   0.00    0.0
2121 176700.000  -2994428.6010   4951308.8701   2674496.5422   6   6   0.0659   0.1527   0.0706  -0.0428   0.0951  -0.0402   0.00    0.0
2121 176730.000  -2994428.5998   4951308.8706   2674496.5436   6   7   0.0655   0.1521   0.0701  -0.0423   0.0946  -0.0398   0.00    0.0
2121 176760.000  -2994428.5982   4951308.8715   2674496.5437   6   7   0.0652   0.1516   0.0698  -0.0420   0.0943  -0.0395   0.00    0.0
2121 176790.000  -2994428.5960   4951308.8670   2674496.5420   6   7   0.0650   0.1512   0.0695  -0.0419   0.0940  -0.0394   0.00    0.0
2121 176820.000  -2994428.5955   4951308.8651   2674496.5417   6   7   0.0648   0.1508   0.0693  -0.0417   0.0937  -0.0392   0.00    0.0
2121 176850.000  -2994428.5946   4951308.8615   2674496.5406   6   7   0.0646   0.1505   0.0691  -0.0416   0.0935  -0.0391   0.00    0.0
2121 176880.000  -2994428.5932   4951308.8633   2674496.5407   6   7   0.0644   0.1501   0.0688  -0.0415   0.0932  -0.0390   0.00    0.0
2121 176910.000  -2994428.5929   4951308.8647   2674496.5402   6   8   0.0642   0.1496   0.0686  -0.0413   0.0929  -0.0388   0.00    0.0
2121 176940.000  -2994428.5911   4951308.8630   2674496.5370   6   8   0.0639   0.1491   0.0682  -0.0410   0.0925  -0.0385   0.00    0.0
2121 176970.000  -2994428.5892   4951308.8651   2674496.5366   6   8   0.0634   0.1484   0.0676  -0.0403   0.0920  -0.0379   0.00    0.0
2121 177000.000  -2994428.5992   4951308.8845   2674496.5483   6   8   0.0615   0.1464   0.0656  -0.0368   0.0901  -0.0356   0.00    0.0
2121 177030.000  -2994428.6017   4951308.8819   2674496.5496   6   8   0.0611   0.1459   0.0652  -0.0363   0.0897  -0.0352   0.00    0.0
2121 177060.000  -2994428.6036   4951308.8779   2674496.5492   6   8   0.0609   0.1455   0.0649  -0.0361   0.0894  -0.0351   0.00    0.0
2121 177090.000  -2994428.6056   4951308.8769   2674496.5494   6   8   0.0607   0.1451   0.0647  -0.0360   0.0891  -0.0349   0.00    0.0
2121 177120.000  -2994428.6075   4951308.8751   2674496.5495   6   8   0.0606   0.1448   0.0645  -0.0359   0.0889  -0.0348   0.00    0.0
2121 177150.000  -2994428.6101   4951308.8739   2674496.5500   6   8   0.0604   0.1444   0.0643  -0.0359   0.0887  -0.0347   0.00    0.0
2121 177180.000  -2994428.6107   4951308.8749   2674496.5510   6   8   0.0602   0.1441   0.0641  -0.0358   0.0884  -0.0346   0.00    0.0
2121 177210.000  -2994428.6106   4951308.8739   2674496.5514   6   8   0.0600   0.1437   0.0639  -0.0356   0.0881  -0.0344   0.00    0.0
2121 177240.000  -2994428.6100   4951308.8740   2674496.5512   6   8   0.0598   0.1433   0.0636  -0.0354   0.0878  -0.0342   0.00    0.0
2121 177270.000  -2994428.6094   4951308.8798   2674496.5517   6   8   0.0593   0.1427   0.0631  -0.0346   0.0873  -0.0336   0.00    0.0
2121 177300.000  -2994428.6202   4951308.9018   2674496.5625   6   8   0.0577   0.1411   0.0614  -0.0315   0.0859  -0.0316   0.00    0.0
2121 177330.000  -2994428.6249   4951308.9065   2674496.5674   6   8   0.0574   0.1406   0.0610  -0.0310   0.0855  -0.0313   0.00    0.0
2121 177360.000  -2994428.6277   4951308.9059   2674496.5687   6   8   0.0572   0.1403   0.0608  -0.0308   0.0852  -0.0311   0.00    0.0
2121 177390.000  -2994428.6310   4951308.9061   2674496.5690   6   8   0.0570   0.1400   0.0606  -0.0307   0.0850  -0.0310   0.00    0.0
2121 177420.000  -2994428.6319   4951308.9114   2674496.5717   6   8   0.0569   0.1396   0.0604  -0.0306   0.0848  -0.0309   0.00    0.0
2121 177450.000  -2994428.6325   4951308.9068   2674496.5709   6   8   0.0567   0.1393   0.0603  -0.0306   0.0846  -0.0308   0.00    0.0
2121 177480.000  -2994428.6344   4951308.9125   2674496.5743   6   8   0.0566   0.1390   0.0601  -0.0305   0.0844  -0.0307   0.00    0.0
2121 177510.000  -2994428.6372   4951308.9144   2674496.5768   6   8   0.0564   0.1387   0.0599  -0.0304   0.0841  -0.0305   0.00    0.0
2121 177540.000  -2994428.6404   4951308.9195   2674496.5797   6   8   0.0562   0.1383   0.0596  -0.0301   0.0838  -0.0303   0.00    0.0
2121 177570.000  -2994428.6436   4951308.9252   2674496.5817   6   8   0.0557   0.1378   0.0592  -0.0295   0.0834  -0.0299   0.00    0.0
2121 177600.000  -2994428.6492   4951308.9367   2674496.5861   6   8   0.0544   0.1366   0.0579  -0.0264   0.0822  -0.0281   0.00    0.0
2121 177630.000  -2994428.6496   4951308.9402   2674496.5873   6   8   0.0541   0.1362   0.0575  -0.0259   0.0819  -0.0278   0.00    0.0
2121 177660.000  -2994428.6520   4951308.9419   2674496.5886   6   8   0.0539   0.1359   0.0573  -0.0257   0.0817  -0.0276   0.00    0.0
2121 177690.000  -2994428.6534   4951308.9454   2674496.5905   6   8   0.0537   0.1356   0.0572  -0.0256   0.0815  -0.0275   0.00    0.0
2121 177720.000  -2994428.6545   4951308.9489   2674496.5923   6   8   0.0536   0.1353   0.0570  -0.0256   0.0813  -0.0274   0.00    0.0
2121 177750.000  -2994428.6546   4951308.9492   2674496.5928   6   8   0.0534   0.1350   0.0568  -0.0255   0.0811  -0.0273   0.00    0.0
2121 177780.000  -2994428.6555   4951308.9496   2674496.5929   6   8   0.0533   0.1347   0.0567  -0.0255   0.0809  -0.0272   0.00    0.0
2121 177810.000  -2994428.6574   4951308.9542   2674496.5958   6   8   0.0531   0.1344   0.0565  -0.0253   0.0807  -0.0271   0.00    0.0
2121 177840.000  -2994428.6600   4951308.9544   2674496.5975   6   8   0.0529   0.1341   0.0563  -0.0251   0.0804  -0.0269   0.00    0.0
2121 177870.000  -2994428.6638   4951308.9556   2674496.5997   6   8   0.0525   0.1337   0.0559  -0.0244   0.0801  -0.0265   0.00    0.0
2121 177900.000  -2994428.6704   4951308.9593   2674496.6044   6   8   0.0513   0.1325   0.0547  -0.0211   0.0790  -0.0248   0.00    0.0
2121 177930.000  -2994428.6740   4951308.9592   2674496.6058   6   8   0.0510   0.1322   0.0544  -0.0206   0.0787  -0.0245   0.00    0.0
2121 177960.000  -2994428.6747   4951308.9590   2674496.6057   6   8   0.0508   0.1319   0.0542  -0.0204   0.0785  -0.0243   0.00    0.0
2121 177990.000  -2994428.6748   4951308.9607   2674496.6070   6   8   0.0506   0.1316   0.0541  -0.0203   0.0783  -0.0242   0.00    0.0
2121 178020.000  -2994428.6757   4951308.9555   2674496.6058   6   8   0.0505   0.1313   0.0539  -0.0202   0.0781  -0.0241   0.00    0.0
2121 178050.000  -2994428.6762   4951308.9552   2674496.6068   6   8   0.0504   0.1311   0.0538  -0.0202   0.0779  -0.0241   0.00    0.0
2121 178080.000  -2994428.6770   4951308.9545   2674496.6076   6   8   0.0503   0.1308   0.0536  -0.0201   0.0777  -0.0240   0.00    0.0
2121 178110.000  -2994428.6786   4951308.9596   2674496.6098   6   8   0.0501   0.1306   0.0535  -0.0200   0.0776  -0.0238   0.00    0.0
2121 178140.000  -2994428.6800   4951308.9656   2674496.6127   6   8   0.0499   0.1303   0.0533  -0.0197   0.0773  -0.0237   0.00    0.0
2121 178170.000  -2994428.6819   4951308.9687   2674496.6141   6   8   0.0495   0.1298   0.0529  -0.0189   0.0770  -0.0233   0.00    0.0
2121 178200.000  -2994428.6850   4951308.9659   2674496.6139   6   8   0.0483   0.1286   0.0518  -0.0149   0.0759  -0.0216   0.00    0.0
2121 178230.000  -2994428.6854   4951308.9624   2674496.6128   6   8   0.0480   0.1282   0.0515  -0.0142   0.0756  -0.0213   0.00    0.0
2121 178260.000  -2994428.6874   4951308.9650   2674496.6144   6   8   0.0479   0.1279   0.0514  -0.0140   0.0754  -0.0211   0.00    0.0
2121 178290.000  -2994428.6882   4951308.9677   2674496.6153   6   8   0.0477   0.1277   0.0512  -0.0139   0.0752  -0.0210   0.00    0.0
2121 178320.000  -2994428.6885   4951308.9697   2674496.6166   6   8   0.0476   0.1274   0.0511  -0.0138   0.0750  -0.0209   0.00    0.0
2121 178350.000  -2994428.6877   4951308.9734   2674496.6183   6   8   0.0475   0.1272   0.0509  -0.0137   0.0748  -0.0209   0.00    0.0
2121 178380.000  -2994428.6866   4951308.9752   2674496.6193   6   8   0.0474   0.1269   0.0508  -0.0136   0.0747  -0.0208   0.00    0.0
2121 178410.000  -2994428.6860   4951308.9825   2674496.6221   6   8   0.0473   0.1267   0.0506  -0.0135   0.0745  -0.0207   0.00    0.0
2121 178440.000  -2994428.6862   4951308.9862   2674496.6235   6   8   0.0471   0.1264   0.0504  -0.0131   0.0742  -0.0205   0.00    0.0
2121 178470.000  -2994428.6856   4951308.9854   2674496.6228   6   8   0.0467   0.1259   0.0501  -0.0120   0.0739  -0.0201   0.00    0.0
2121 178500.000  -2994428.6879   4951308.9886   2674496.6264   6   8   0.0456   0.1244   0.0490  -0.0043   0.0726  -0.0184   0.00    0.0
2121 178530.000  -2994428.6879   4951308.9885   2674496.6269   6   8   0.0453   0.1240   0.0487  -0.0008   0.0723  -0.0181   0.00    0.0
2121 178560.000  -2994428.6883   4951308.9881   2674496.6280   6   8   0.0452   0.1237   0.0485   0.0023   0.0721  -0.0179   0.00    0.0
2121 178590.000  -2994428.6879   4951308.9860   2674496.6285   6   8   0.0450   0.1234   0.0484   0.0029   0.0719  -0.0178   0.00    0.0
2121 178620.000  -2994428.6878   4951308.9854   2674496.6297   6   8   0.0449   0.1232   0.0483   0.0033   0.0717  -0.0177   0.00    0.0
2121 178650.000  -2994428.6884   4951308.9843   2674496.6301   6   8   0.0448   0.1229   0.0481   0.0035   0.0716  -0.0177   0.00    0.0
2121 178680.000  -2994428.6893   4951308.9859   2674496.6310   6   8   0.0447   0.1227   0.0480   0.0038   0.0714  -0.0176   0.00    0.0
2121 178710.000  -2994428.6898   4951308.9868   2674496.6319   6   8   0.0446   0.1224   0.0478   0.0043   0.0712  -0.0175   0.00    0.0
2121 178740.000  -2994428.6913   4951308.9823   2674496.6304   6   8   0.0444   0.1221   0.0477   0.0052   0.0710  -0.0173   0.00    0.0
2121 178770.000  -2994428.6915   4951308.9796   2674496.6289   6   8   0.0441   0.1215   0.0473   0.0072   0.0705  -0.0169   0.00    0.0
2121 178800.000  -2994428.6956   4951308.9835   2674496.6316   6   8   0.0430   0.1195   0.0461   0.0129   0.0690  -0.0151   0.00    0.0
2121 178830.000  -2994428.6954   4951308.9857   2674496.6330   6   8   0.0428   0.1190   0.0459   0.0136   0.0687  -0.0148   0.00    0.0
2121 178860.000  -2994428.6949   4951308.9866   2674496.6338   6   8   0.0426   0.1187   0.0457   0.0138   0.0685  -0.0146   0.00    0.0
2121 178890.000  -2994428.6947   4951308.9861   2674496.6342   6   8   0.0425   0.1184   0.0455   0.0139   0.0683  -0.0145   0.00    0.0
2121 178920.000  -2994428.6933   4951308.9868   2674496.6343   6   8   0.0424   0.1182   0.0454   0.0139   0.0681  -0.0144   0.00    0.0
2121 178950.000  -2994428.6922   4951308.9882   2674496.6353   6   8   0.0423   0.1180   0.0453   0.0140   0.0679  -0.0144   0.00    0.0
2121 178980.000  -2994428.6916   4951308.9898   2674496.6364   6   8   0.0422   0.1177   0.0452   0.0141   0.0678  -0.0143   0.00    0.0
2121 179010.000  -2994428.6919   4951308.9912   2674496.6375   6   8   0.0421   0.1174   0.0450   0.0142   0.0676  -0.0142   0.00    0.0
2121 179040.000  -2994428.6918   4951308.9935   2674496.6391   6   8   0.0419   0.1170   0.0448   0.0145   0.0673  -0.0140   0.00    0.0
2121 179070.000  -2994428.6914   4951308.9952   2674496.6401   6   8   0.0416   0.1163   0.0444   0.0153   0.0668  -0.0135   0.00    0.0
2121 179100.000  -2994428.6944   4951309.0007   2674496.6432   6   8   0.0406   0.1136   0.0431   0.0186   0.0649  -0.0114   0.00    0.0
2121 179130.000  -2994428.6952   4951309.0050   2674496.6451   6   8   0.0404   0.1130   0.0428   0.0190   0.0645  -0.0110   0.00    0.0
2121 179160.000  -2994428.6949   4951309.0051   2674496.6460   6   8   0.0403   0.1127   0.0426   0.0191   0.0642  -0.0109   0.00    0.0
2121 179190.000  -2994428.6960   4951309.0033   2674496.6458   6   7   0.0402   0.1124   0.0425   0.0191   0.0641  -0.0108   0.00    0.0
2121 179220.000  -2994428.6972   4951308.9980   2674496.6439   6   7   0.0401   0.1122   0.0424   0.0192   0.0639  -0.0107   0.00    0.0
2121 179250.000  -2994428.6979   4951308.9930   2674496.6423   6   7   0.0400   0.1120   0.0423   0.0192   0.0638  -0.0107   0.00    0.0
2121 179280.000  -2994428.6990   4951308.9893   2674496.6410   6   7   0.0399   0.1118   0.0421   0.0192   0.0636  -0.0106   0.00    0.0
2121 179310.000  -2994428.6992   4951308.9881   2674496.6403   6   7   0.0398   0.1115   0.0420   0.0192   0.0635  -0.0105   0.00    0.0
2121 179340.000  -2994428.7006   4951308.9878   2674496.6402   6   7   0.0397   0.1112   0.0419   0.0192   0.0633  -0.0104   0.00    0.0
2121 179370.000  -2994428.7040   4951308.9879   2674496.6402   6   7   0.0394   0.1107   0.0416   0.0194   0.0629  -0.0102   0.00    0.0
2121 179400.000  -2994428.7098   4951308.9887   2674496.6424   6   7   0.0387   0.1090   0.0408   0.0202   0.0618  -0.0094   0.00    0.0
2121 179430.000  -2994428.7123   4951308.9893   2674496.6431   6   7   0.0385   0.1086   0.0406   0.0202   0.0615  -0.0092   0.00    0.0
2121 179460.000  -2994428.7134   4951308.9905   2674496.6436   6   7   0.0384   0.1083   0.0405   0.0203   0.0613  -0.0091   0.00    0.0
2121 179490.000  -2994428.7145   4951308.9923   2674496.6448   6   7   0.0383   0.1081   0.0404   0.0203   0.0612  -0.0091   0.00    0.0
2121 179520.000  -2994428.7143   4951308.9945   2674496.6460   6   7   0.0382   0.1079   0.0403   0.0202   0.0610  -0.0090   0.00    0.0
2121 179550.000  -2994428.7131   4951308.9940   2674496.6460   6   7   0.0381   0.1076   0.0402   0.0202   0.0609  -0.0090   0.00    0.0
2121 179580.000  -2994428.7122   4951308.9921   2674496.6458   6   7   0.0381   0.1074   0.0401   0.0202   0.0608  -0.0089   0.00    0.0
2121 179610.000  -2994428.7117   4951308.9909   2674496.6457   6   7   0.0380   0.1072   0.0400   0.0202   0.0606  -0.0089   0.00    0.0
2121 179640.000  -2994428.7102   4951308.9901   2674496.6453   6   7   0.0378   0.1068   0.0398   0.0202   0.0604  -0.0088   0.00    0.0
2121 179670.000  -2994428.7083   4951308.9870   2674496.6433   6   7   0.0376   0.1063   0.0396   0.0203   0.0601  -0.0087   0.00    0.0
2121 179700.000  -2994428.7097   4951309.0019   2674496.6507   6   7   0.0370   0.1044   0.0388   0.0206   0.0589  -0.0081   0.00    0.0
2121 179730.000  -2994428.7118   4951309.0058   2674496.6522   6   7   0.0368   0.1040   0.0386   0.0206   0.0586  -0.0081   0.00    0.0
2121 179760.000  -2994428.7129   4951309.0089   2674496.6534   6   7   0.0367   0.1037   0.0385   0.0206   0.0584  -0.0080   0.00    0.0
2121 179790.000  -2994428.7140   4951309.0115   2674496.6546   6   7   0.0366   0.1035   0.0384   0.0206   0.0583  -0.0080   0.00    0.0
2121 179820.000  -2994428.7144   4951309.0126   2674496.6555   6   7   0.0365   0.1033   0.0383   0.0206   0.0581  -0.0079   0.00    0.0
2121 179850.000  -2994428.7155   4951309.0126   2674496.6562   6   7   0.0365   0.1030   0.0382   0.0205   0.0580  -0.0079   0.00    0.0
2121 179880.000  -2994428.7170   4951309.0136   2674496.6574   6   7   0.0364   0.1028   0.0381   0.0205   0.0579  -0.0079   0.00    0.0
2121 179910.000  -2994428.7186   4951309.0109   2674496.6568   6   7   0.0363   0.1025   0.0380   0.0205   0.0577  -0.0078   0.00    0.0
2121 179940.000  -2994428.7192   4951309.0074   2674496.6556   6   7   0.0362   0.1022   0.0379   0.0204   0.0575  -0.0078   0.00    0.0
2121 179970.000  -2994428.7203   4951309.0061   2674496.6550   6   7   0.0360   0.1017   0.0377   0.0204   0.0572  -0.0078   0.00    0.0
2121 180000.000  -2994428.7221   4951309.0112   2674496.6572   6   7   0.0354   0.0997   0.0370   0.0203   0.0560  -0.0076   0.00    0.0
2121 180030.000  -2994428.7224   4951309.0094   2674496.6572   6   7   0.0353   0.0993   0.0368   0.0203   0.0558  -0.0076   0.00    0.0
2121 180060.000  -2994428.7225   4951309.0111   2674496.6584   6   7   0.0352   0.0990   0.0367   0.0202   0.0556  -0.0076   0.00    0.0
2121 180090.000  -2994428.7228   4951309.0129   2674496.6594   6   7   0.0351   0.0988   0.0366   0.0202   0.0554  -0.0076   0.00    0.0
2121 180120.000  -2994428.7227   4951309.0128   2674496.6595   6   7   0.0350   0.0985   0.0365   0.0202   0.0553  -0.0076   0.00    0.0
2121 180150.000  -2994428.7223   4951309.0128   2674496.6597   6   7   0.0350   0.0983   0.0364   0.0201   0.0552  -0.0076   0.00    0.0
2121 180180.000  -2994428.7220   4951309.0108   2674496.6595   6   7   0.0349   0.0981   0.0363   0.0201   0.0550  -0.0075   0.00    0.0
2121 180210.000  -2994428.7213   4951309.0097   2674496.6591   6   7   0.0348   0.0978   0.0362   0.0200   0.0549  -0.0075   0.00    0.0
2121 180240.000  -2994428.7211   4951309.0100   2674496.6594   6   7   0.0347   0.0975   0.0361   0.0200   0.0547  -0.0076   0.00    0.0
2121 180270.000  -2994428.7214   4951309.0081   2674496.6590   6   7   0.0346   0.0969   0.0359   0.0198   0.0544  -0.0076   0.00    0.0
2121 180300.000  -2994428.7241   4951309.0122   2674496.6618   6   8   0.0340   0.0950   0.0352   0.0194   0.0532  -0.0078   0.00    0.0
2121 180330.000  -2994428.7252   4951309.0105   2674496.6621   6   8   0.0339   0.0945   0.0350   0.0193   0.0529  -0.0079   0.00    0.0
2121 180360.000  -2994428.7260   4951309.0085   2674496.6619   6   8   0.0338   0.0942   0.0349   0.0193   0.0528  -0.0079   0.00    0.0
2121 180390.000  -2994428.7274   4951309.0080   2674496.6617   6   8   0.0338   0.0939   0.0348   0.0192   0.0526  -0.0079   0.00    0.0
2121 180420.000  -2994428.7289   4951309.0046   2674496.6603   6   8   0.0337   0.0937   0.0348   0.0192   0.0525  -0.0079   0.00    0.0
2121 180450.000  -2994428.7306   4951309.0020   2674496.6595   6   8   0.0336   0.0935   0.0347   0.0191   0.0524  -0.0079   0.00    0.0
2121 180480.000  -2994428.7327   4951308.9982   2674496.6583   6   8   0.0336   0.0933   0.0346   0.0191   0.0522  -0.0079   0.00    0.0
2121 180510.000  -2994428.7348   4951308.9954   2674496.6573   6   8   0.0335   0.0930   0.0345   0.0190   0.0521  -0.0079   0.00    0.0
2121 180540.000  -2994428.7352   4951308.9940   2674496.6566   6   8   0.0334   0.0927   0.0344   0.0189   0.0519  -0.0079   0.00    0.0
2121 180570.000  -2994428.7358   4951308.9922   2674496.6561   6   8   0.0333   0.0921   0.0342   0.0188   0.0516  -0.0080   0.00    0.0
2121 180600.000  -2994428.7373   4951308.9987   2674496.6597   6   8   0.0328   0.0902   0.0336   0.0182   0.0505  -0.0083   0.00    0.0
2121 180630.000  -2994428.7391   4951309.0037   2674496.6616   6   8   0.0326   0.0897   0.0334   0.0181   0.0502  -0.0084   0.00    0.0
2121 180660.000  -2994428.7403   4951309.0079   2674496.6631   6   8   0.0326   0.0894   0.0333   0.0180   0.0501  -0.0084   0.00    0.0
2121 180690.000  -2994428.7406   4951309.0113   2674496.6642   6   8   0.0325   0.0892   0.0332   0.0179   0.0499  -0.0084   0.00    0.0
2121 180720.000  -2994428.7401   4951309.0130   2674496.6647   6   8   0.0324   0.0890   0.0332   0.0179   0.0498  -0.0084   0.00    0.0
2121 180750.000  -2994428.7404   4951309.0129   2674496.6646   6   8   0.0324   0.0888   0.0331   0.0178   0.0497  -0.0084   0.00    0.0
2121 180780.000  -2994428.7407   4951309.0112   2674496.6640   6   8   0.0323   0.0886   0.0330   0.0178   0.0496  -0.0084   0.00    0.0
2121 180810.000  -2994428.7417   4951309.0102   2674496.6636   6   8   0.0323   0.0883   0.0329   0.0177   0.0494  -0.0085   0.00    0.0
2121 180840.000  -2994428.7424   4951309.0103   2674496.6634   6   8   0.0322   0.0880   0.0328   0.0176   0.0493  -0.0085   0.00    0.0
2121 180870.000  -2994428.7437   4951309.0083   2674496.6633   6   8   0.0320   0.0874   0.0327   0.0174   0.0490  -0.0086   0.00    0.0
2121 180900.000  -2994428.7454   4951309.0125   2674496.6659   6   8   0.0316   0.0856   0.0321   0.0166   0.0479  -0.0090   0.00    0.0
2121 180930.000  -2994428.7471   4951309.0131   2674496.6670   6   8   0.0314   0.0851   0.0320   0.0164   0.0477  -0.0091   0.00    0.0
2121 180960.000  -2994428.7480   4951309.0117   2674496.6673   6   8   0.0314   0.0849   0.0319   0.0163   0.0475  -0.0091   0.00    0.0
2121 180990.000  -2994428.7489   4951309.0106   2674496.6670   6   8   0.0313   0.0846   0.0318   0.0163   0.0474  -0.0091   0.00    0.0
2121 181020.000  -2994428.7498   4951309.0103   2674496.6675   6   8   0.0313   0.0844   0.0317   0.0162   0.0473  -0.0091   0.00    0.0
2121 181050.000  -2994428.7509   4951309.0093   2674496.6674   6   8   0.0312   0.0842   0.0317   0.0161   0.0472  -0.0092   0.00    0.0
2121 181080.000  -2994428.7520   4951309.0091   2674496.6669   6   8   0.0312   0.0840   0.0316   0.0161   0.0471  -0.0092   0.00    0.0
2121 181110.000  -2994428.7525   4951309.0096   2674496.6671   6   8   0.0311   0.0838   0.0315   0.0160   0.0470  -0.0092   0.00    0.0
2121 181140.000  -2994428.7523   4951309.0093   2674496.6671   6   8   0.0310   0.0835   0.0314   0.0158   0.0468  -0.0093   0.00    0.0
2121 181170.000  -2994428.7518   4951309.0033   2674496.6653   6   8   0.0309   0.0830   0.0313   0.0156   0.0465  -0.0094   0.00    0.0
2121 181200.000  -2994428.7519   4951309.0095   2674496.6680   6   8   0.0304   0.0812   0.0308   0.0146   0.0456  -0.0098   0.00    0.0
2121 181230.000  -2994428.7506   4951309.0114   2674496.6689   6   8   0.0303   0.0808   0.0306   0.0144   0.0453  -0.0099   0.00    0.0
2121 181260.000  -2994428.7499   4951309.0123   2674496.6693   6   8   0.0303   0.0805   0.0306   0.0143   0.0452  -0.0099   0.00    0.0
2121 181290.000  -2994428.7494   4951309.0139   2674496.6699   6   9   0.0302   0.0803   0.0305   0.0142   0.0451  -0.0099   0.00    0.0
2121 181320.000  -2994428.7493   4951309.0160   2674496.6705   6   9   0.0302   0.0801   0.0304   0.0141   0.0450  -0.0099   0.00    0.0
2121 181350.000  -2994428.7497   4951309.0156   2674496.6706   6   9   0.0301   0.0799   0.0304   0.0141   0.0449  -0.0100   0.00    0.0
2121 181380.000  -2994428.7506   4951309.0154   2674496.6709   6   9   0.0301   0.0797   0.0303   0.0140   0.0448  -0.0100   0.00    0.0
2121 181410.000  -2994428.7527   4951309.0158   2674496.6716   6   9   0.0300   0.0795   0.0303   0.0138   0.0447  -0.0100   0.00    0.0
2121 181440.000  -2994428.7543   4951309.0165   2674496.6724   6   9   0.0299   0.0792   0.0302   0.0137   0.0446  -0.0101   0.00    0.0
2121 181470.000  -2994428.7558   4951309.0162   2674496.6724   6   9   0.0298   0.0788   0.0301   0.0134   0.0443  -0.0102   0.00    0.0
2121 181500.000  -2994428.7561   4951309.0169   2674496.6726   6   9   0.0294   0.0773   0.0298   0.0121   0.0436  -0.0106   0.00    0.0
2121 181530.000  -2994428.7571   4951309.0173   2674496.6735   6   9   0.0293   0.0770   0.0297   0.0119   0.0435  -0.0107   0.00    0.0
2121 181560.000  -2994428.7573   4951309.0170   2674496.6738   6   9   0.0292   0.0768   0.0296   0.0117   0.0434  -0.0108   0.00    0.0
2121 181590.000  -2994428.7570   4951309.0168   2674496.6744   6   9   0.0292   0.0766   0.0296   0.0116   0.0433  -0.0108   0.00    0.0
2121 181620.000  -2994428.7578   4951309.0160   2674496.6748   6   9   0.0291   0.0764   0.0295   0.0114   0.0432  -0.0108   0.00    0.0
2121 181650.000  -2994428.7587   4951309.0153   2674496.6755   6   9   0.0291   0.0762   0.0295   0.0113   0.0431  -0.0109   0.00    0.0
2121 181680.000  -2994428.7592   4951309.0137   2674496.6757   6   9   0.0291   0.0760   0.0294   0.0112   0.0430  -0.0109   0.00    0.0
2121 181710.000  -2994428.7604   4951309.0139   2674496.6766   6   9   0.0290   0.0758   0.0294   0.0110   0.0429  -0.0109   0.00    0.0
2121 181740.000  -2994428.7619   4951309.0141   2674496.6775   6   9   0.0289   0.0756   0.0293   0.0108   0.0428  -0.0110   0.00    0.0
2121 181770.000  -2994428.7638   4951309.0133   2674496.6782   6   9   0.0288   0.0752   0.0292   0.0104   0.0426  -0.0111   0.00    0.0
2121 181800.000  -2994428.7668   4951309.0067   2674496.6754   6   9   0.0284   0.0738   0.0289   0.0089   0.0420  -0.0115   0.00    0.0
2121 181830.000  -2994428.7674   4951309.0090   2674496.6764   6   9   0.0284   0.0735   0.0288   0.0085   0.0418  -0.0116   0.00    0.0
2121 181860.000  -2994428.7679   4951309.0103   2674496.6772   6   9   0.0283   0.0733   0.0288   0.0083   0.0417  -0.0116   0.00    0.0
2121 181890.000  -2994428.7680   4951309.0124   2674496.6787   6   9   0.0283   0.0731   0.0287   0.0081   0.0416  -0.0116   0.00    0.0
2121 181920.000  -2994428.7686   4951309.0156   2674496.6804   6   9   0.0282   0.0730   0.0287   0.0079   0.0416  -0.0117   0.00    0.0
2121 181950.000  -2994428.7693   4951309.0189   2674496.6818   6   9   0.0282   0.0728   0.0287   0.0077   0.0415  -0.0117   0.00    0.0
2121 181980.000  -2994428.7702   4951309.0237   2674496.6835   6   9   0.0281   0.0727   0.0286   0.0075   0.0414  -0.0118   0.00    0.0
2121 182010.000  -2994428.7709   4951309.0279   2674496.6849   6   9   0.0281   0.0725   0.0286   0.0072   0.0413  -0.0118   0.00    0.0
2121 182040.000  -2994428.7724   4951309.0288   2674496.6854   6   9   0.0280   0.0723   0.0285   0.0069   0.0412  -0.0119   0.00    0.0
2121 182070.000  -2994428.7752   4951309.0279   2674496.6853   6   9   0.0279   0.0719   0.0284   0.0062   0.0411  -0.0120   0.00    0.0
2121 182100.000  -2994428.7763   4951309.0193   2674496.6822   6   9   0.0276   0.0706   0.0281   0.0031   0.0404  -0.0123   0.00    0.0
2121 182130.000  -2994428.7764   4951309.0157   2674496.6818   6   9   0.0275   0.0702   0.0280   0.0018   0.0403  -0.0124   0.00    0.0
2121 182160.000  -2994428.7761   4951309.0124   2674496.6815   6   9   0.0275   0.0700   0.0280  -0.0009   0.0402  -0.0124   0.00    0.0
2121 182190.000  -2994428.7754   4951309.0102   2674496.6818   6   9   0.0274   0.0699   0.0280  -0.0020   0.0401  -0.0124   0.00    0.0
2121 182220.000  -2994428.7750   4951309.0092   2674496.6823   6   9   0.0274   0.0697   0.0279  -0.0026   0.0400  -0.0125   0.00    0.0
2121 182250.000  -2994428.7748   4951309.0079   2674496.6829   6   9   0.0273   0.0696   0.0279  -0.0031   0.0400  -0.0125   0.00    0.0
2121 182280.000  -2994428.7746   4951309.0067   2674496.6832   6   9   0.0273   0.0695   0.0279  -0.0036   0.0399  -0.0125   0.00    0.0
2121 182310.000  -2994428.7752   4951309.0063   2674496.6834   6   9   0.0273   0.0693   0.0278  -0.0040   0.0398  -0.0126   0.00    0.0
2121 182340.000  -2994428.7755   4951309.0078   2674496.6840   6   9   0.0272   0.0691   0.0278  -0.0045   0.0397  -0.0126   0.00    0.0
2121 182370.000  -2994428.7758   4951309.0090   2674496.6837   6   9   0.0271   0.0687   0.0277  -0.0053   0.0396  -0.0127   0.00    0.0
2121 182400.000  -2994428.7766   4951309.0017   2674496.6801   6   9   0.0268   0.0675   0.0274  -0.0074   0.0390  -0.0130   0.00    0.0
2121 182430.000  -2994428.7771   4951308.9990   2674496.6789   6   9   0.0267   0.0672   0.0273  -0.0078   0.0388  -0.0131   0.00    0.0
2121 182460.000  -2994428.7774   4951308.9968   2674496.6781   6   9   0.0267   0.0670   0.0273  -0.0080   0.0387  -0.0131   0.00    0.0
2121 182490.000  -2994428.7773   4951308.9973   2674496.6780   6   9   0.0267   0.0668   0.0272  -0.0082   0.0387  -0.0131   0.00    0.0
2121 182520.000  -2994428.7769   4951308.9976   2674496.6780   6   9   0.0266   0.0667   0.0272  -0.0084   0.0386  -0.0132   0.00    0.0
2121 182550.000  -2994428.7765   4951308.9974   2674496.6780   6   9   0.0266   0.0666   0.0272  -0.0085   0.0386  -0.0132   0.00    0.0
2121 182580.000  -2994428.7766   4951308.9963   2674496.6776   6   9   0.0266   0.0664   0.0272  -0.0087   0.0385  -0.0132   0.00    0.0
2121 182610.000  -2994428.7768   4951308.9961   2674496.6772   6   9   0.0265   0.0663   0.0271  -0.0089   0.0384  -0.0133   0.00    0.0
2121 182640.000  -2994428.7767   4951308.9950   2674496.6764   6   9   0.0265   0.0661   0.0271  -0.0091   0.0383  -0.0133   0.00    0.0
2121 182670.000  -2994428.7764   4951308.9937   2674496.6752   6   9   0.0264   0.0657   0.0270  -0.0095   0.0382  -0.0134   0.00    0.0
2121 182700.000  -2994428.7760   4951308.9893   2674496.6722   6   9   0.0261   0.0645   0.0266  -0.0107   0.0375  -0.0136   0.00    0.0
2121 182730.000  -2994428.7761   4951308.9867   2674496.6712   6   9   0.0261   0.0642   0.0266  -0.0109   0.0374  -0.0137   0.00    0.0
2121 182760.000  -2994428.7757   4951308.9856   2674496.6707   6   9   0.0260   0.0640   0.0265  -0.0111   0.0373  -0.0137   0.00    0.0
2121 182790.000  -2994428.7753   4951308.9851   2674496.6705   6   9   0.0260   0.0639   0.0265  -0.0112   0.0372  -0.0137   0.00    0.0
2121 182820.000  -2994428.7750   4951308.9844   2674496.6704   6   9   0.0260   0.0638   0.0265  -0.0113   0.0372  -0.0138   0.00    0.0
2121 182850.000  -2994428.7744   4951308.9847   2674496.6705   6   9   0.0259   0.0636   0.0264  -0.0114   0.0371  -0.0138   0.00    0.0
2121 182880.000  -2994428.7736   4951308.9852   2674496.6706   6   9   0.0259   0.0635   0.0264  -0.0115   0.0371  -0.0138   0.00    0.0
2121 182910.000  -2994428.7728   4951308.9847   2674496.6703   6   9   0.0259   0.0634   0.0264  -0.0117   0.0370  -0.0138   0.00    0.0
2121 182940.000  -2994428.7720   4951308.9847   2674496.6700   6   9   0.0258   0.0632   0.0263  -0.0118   0.0369  -0.0139   0.00    0.0
2121 182970.000  -2994428.7706   4951308.9838   2674496.6691   6   9   0.0258   0.0628   0.0262  -0.0120   0.0367  -0.0139   0.00    0.0
2121 183000.000  -2994428.7693   4951308.9857   2674496.6691   6   9   0.0255   0.0616   0.0259  -0.0128   0.0361  -0.0141   0.00    0.0
2121 183030.000  -2994428.7684   4951308.9846   2674496.6689   6   9   0.0255   0.0613   0.0258  -0.0130   0.0359  -0.0141   0.00    0.0
2121 183060.000  -2994428.7672   4951308.9831   2674496.6685   6   9   0.0254   0.0612   0.0257  -0.0131   0.0359  -0.0141   0.00    0.0
2121 183090.000  -2994428.7663   4951308.9816   2674496.6682   6   9   0.0254   0.0610   0.0257  -0.0132   0.0358  -0.0142   0.00    0.0
2121 183120.000  -2994428.7653   4951308.9804   2674496.6678   6   9   0.0254   0.0609   0.0257  -0.0133   0.0357  -0.0142   0.00    0.0
2121 183150.000  -2994428.7642   4951308.9793   2674496.6676   6   9   0.0253   0.0608   0.0257  -0.0133   0.0357  -0.0142   0.00    0.0
2121 183180.000  -2994428.7632   4951308.9777   2674496.6673   6   9   0.0253   0.0606   0.0256  -0.0134   0.0356  -0.0142   0.00    0.0
2121 183210.000  -2994428.7621   4951308.9752   2674496.6669   6   8   0.0253   0.0605   0.0256  -0.0135   0.0356  -0.0142   0.00    0.0
2121 183240.000  -2994428.7614   4951308.9736   2674496.6669   6   7   0.0252   0.0604   0.0256  -0.0136   0.0355  -0.0143   0.00    0.0
2121 183270.000  -2994428.7612   4951308.9739   2674496.6671   6   7   0.0252   0.0602   0.0255  -0.0138   0.0355  -0.0143   0.00    0.0
2121 183300.000  -2994428.7596   4951308.9867   2674496.6707   6   7   0.0250   0.0595   0.0254  -0.0145   0.0352  -0.0145   0.00    0.0
2121 183330.000  -2994428.7594   4951308.9890   2674496.6714   6   7   0.0249   0.0594   0.0254  -0.0146   0.0351  -0.0145   0.00    0.0
2121 183360.000  -2994428.7590   4951308.9906   2674496.6718   6   7   0.0249   0.0592   0.0253  -0.0147   0.0351  -0.0145   0.00    0.0
2121 183390.000  -2994428.7586   4951308.9920   2674496.6723   6   7   0.0249   0.0591   0.0253  -0.0148   0.0350  -0.0146   0.00    0.0
2121 183420.000  -2994428.7579   4951308.9930   2674496.6726   6   7   0.0248   0.0590   0.0253  -0.0149   0.0350  -0.0146   0.00    0.0
2121 183450.000  -2994428.7573   4951308.9929   2674496.6726   6   7   0.0248   0.0589   0.0253  -0.0149   0.0350  -0.0146   0.00    0.0
2121 183480.000  -2994428.7568   4951308.9930   2674496.6725   6   7   0.0248   0.0588   0.0253  -0.0150   0.0349  -0.0146   0.00    0.0
2121 183510.000  -2994428.7567   4951308.9925   2674496.6722   6   7   0.0248   0.0587   0.0252  -0.0151   0.0349  -0.0146   0.00    0.0
2121 183540.000  -2994428.7565   4951308.9911   2674496.6715   6   7   0.0247   0.0586   0.0252  -0.0151   0.0348  -0.0147   0.00    0.0
2121 183570.000  -2994428.7561   4951308.9909   2674496.6713   6   7   0.0247   0.0584   0.0252  -0.0153   0.0348  -0.0147   0.00    0.0
2121 183600.000  -2994428.7546   4951309.0005   2674496.6733   6   7   0.0245   0.0578   0.0250  -0.0159   0.0345  -0.0148   0.00    0.0
2121 183630.000  -2994428.7542   4951309.0025   2674496.6738   6   7   0.0245   0.0576   0.0250  -0.0160   0.0344  -0.0149   0.00    0.0
2121 183660.000  -2994428.7539   4951309.0033   2674496.6739   6   7   0.0244   0.0575   0.0250  -0.0161   0.0344  -0.0149   0.00    0.0
2121 183690.000  -2994428.7533   4951309.0044   2674496.6740   6   7   0.0244   0.0574   0.0249  -0.0161   0.0343  -0.0149   0.00    0.0
2121 183720.000  -2994428.7527   4951309.0046   2674496.6740   6   7   0.0244   0.0573   0.0249  -0.0162   0.0343  -0.0149   0.00    0.0
2121 183750.000  -2994428.7522   4951309.0044   2674496.6738   6   7   0.0244   0.0572   0.0249  -0.0163   0.0343  -0.0150   0.00    0.0
2121 183780.000  -2994428.7516   4951309.0037   2674496.6733   6   7   0.0244   0.0571   0.0249  -0.0163   0.0342  -0.0150   0.00    0.0
2121 183810.000  -2994428.7514   4951309.0013   2674496.6723   6   7   0.0243   0.0570   0.0249  -0.0164   0.0342  -0.0150   0.00    0.0
2121 183840.000  -2994428.7513   4951309.0003   2674496.6719   6   7   0.0243   0.0569   0.0248  -0.0165   0.0341  -0.0150   0.00    0.0
2121 183870.000  -2994428.7512   4951309.0000   2674496.6710   6   7   0.0243   0.0567   0.0248  -0.0166   0.0340  -0.0151   0.00    0.0
2121 183900.000  -2994428.7505   4951309.0056   2674496.6721   6   7   0.0241   0.0561   0.0246  -0.0171   0.0338  -0.0152   0.00    0.0
2121 183930.000  -2994428.7501   4951309.0058   2674496.6723   6   7   0.0241   0.0560   0.0246  -0.0172   0.0337  -0.0152   0.00    0.0
2121 183960.000  -2994428.7500   4951309.0044   2674496.6720   6   7   0.0241   0.0559   0.0246  -0.0173   0.0337  -0.0152   0.00    0.0
2121 183990.000  -2994428.7497   4951309.0036   2674496.6718   6   7   0.0240   0.0558   0.0245  -0.0173   0.0336  -0.0153   0.00    0.0
2121 184020.000  -2994428.7496   4951309.0027   2674496.6716   6   7   0.0240   0.0557   0.0245  -0.0173   0.0336  -0.0153   0.00    0.0
2121 184050.000  -2994428.7492   4951309.0022   2674496.6714   6   7   0.0240   0.0556   0.0245  -0.0174   0.0336  -0.0153   0.00    0.0
2121 184080.000  -2994428.7485   4951309.0020   2674496.6714   6   7   0.0240   0.0555   0.0245  -0.0174   0.0335  -0.0153   0.00    0.0
2121 184110.000  -2994428.7479   4951309.0014   2674496.6709   6   7   0.0240   0.0554   0.0244  -0.0175   0.0335  -0.0153   0.00    0.0
2121 184140.000  -2994428.7473   4951309.0008   2674496.6702   6   7   0.0239   0.0553   0.0244  -0.0176   0.0334  -0.0153   0.00    0.0
2121 184170.000  -2994428.7471   4951309.0015   2674496.6695   6   7   0.0239   0.0551   0.0244  -0.0177   0.0333  -0.0154   0.00    0.0
2121 184200.000  -2994428.7464   4951309.0051   2674496.6708   6   7   0.0238   0.0545   0.0242  -0.0181   0.0331  -0.0155   0.00    0.0
2121 184230.000  -2994428.7457   4951309.0056   2674496.6710   6   7   0.0237   0.0544   0.0241  -0.0182   0.0330  -0.0155   0.00    0.0
2121 184260.000  -2994428.7454   4951309.0057   2674496.6712   6   7   0.0237   0.0543   0.0241  -0.0182   0.0330  -0.0155   0.00    0.0
2121 184290.000  -2994428.7453   4951309.0050   2674496.6708   6   7   0.0237   0.0542   0.0241  -0.0182   0.0329  -0.0155   0.00    0.0
2121 184320.000  -2994428.7454   4951309.0035   2674496.6703   6   7   0.0237   0.0541   0.0241  -0.0183   0.0329  -0.0155   0.00    0.0
2121 184350.000  -2994428.7451   4951309.0023   2674496.6700   6   7   0.0237   0.0541   0.0241  -0.0183   0.0328  -0.0155   0.00    0.0
2121 184380.000  -2994428.7448   4951309.0009   2674496.6698   6   7   0.0237   0.0540   0.0240  -0.0184   0.0328  -0.0156   0.00    0.0
2121 184410.000  -2994428.7444   4951308.9998   2674496.6691   6   7   0.0236   0.0539   0.0240  -0.0184   0.0328  -0.0156   0.00    0.0
2121 184440.000  -2994428.7436   4951308.9992   2674496.6682   6   7   0.0236   0.0538   0.0240  -0.0185   0.0327  -0.0156   0.00    0.0
2121 184470.000  -2994428.7426   4951308.9990   2674496.6672   6   7   0.0236   0.0536   0.0239  -0.0186   0.0326  -0.0156   0.00    0.0
2121 184500.000  -2994428.7413   4951309.0050   2674496.6685   6   7   0.0235   0.0531   0.0237  -0.0189   0.0324  -0.0157   0.00    0.0
2121 184530.000  -2994428.7406   4951309.0045   2674496.6684   6   7   0.0234   0.0529   0.0237  -0.0189   0.0323  -0.0157   0.00    0.0
2121 184560.000  -2994428.7393   4951309.0053   2674496.6683   6   7   0.0234   0.0528   0.0237  -0.0190   0.0323  -0.0157   0.00    0.0
2121 184590.000  -2994428.7382   4951309.0065   2674496.6683   6   7   0.0234   0.0528   0.0236  -0.0190   0.0322  -0.0157   0.00    0.0
2121 184620.000  -2994428.7371   4951309.0073   2674496.6683   6   7   0.0234   0.0527   0.0236  -0.0191   0.0322  -0.0157   0.00    0.0
2121 184650.000  -2994428.7362   4951309.0076   2674496.6683   6   7   0.0234   0.0526   0.0236  -0.0191   0.0322  -0.0157   0.00    0.0
2121 184680.000  -2994428.7355   4951309.0077   2674496.6679   6   7   0.0234   0.0525   0.0236  -0.0191   0.0321  -0.0158   0.00    0.0
2121 184710.000  -2994428.7349   4951309.0076   2674496.6677   6   7   0.0233   0.0524   0.0236  -0.0192   0.0321  -0.0158   0.00    0.0
2121 184740.000  -2994428.7342   4951309.0066   2674496.6670   6   7   0.0233   0.0523   0.0235  -0.0192   0.0320  -0.0158   0.00    0.0
2121 184770.000  -2994428.7332   4951309.0048   2674496.6657   6   7   0.0233   0.0522   0.0235  -0.0193   0.0320  -0.0158   0.00    0.0
2121 184800.000  -2994428.7326   4951309.0072   2674496.6663   6   7   0.0232   0.0517   0.0233  -0.0195   0.0317  -0.0158   0.00    0.0
2121 184830.000  -2994428.7325   4951309.0071   2674496.6666   6   7   0.0232   0.0515   0.0232  -0.0196   0.0316  -0.0159   0.00    0.0
2121 184860.000  -2994428.7326   4951309.0062   2674496.6665   6   7   0.0231   0.0515   0.0232  -0.0196   0.0316  -0.0159   0.00    0.0
2121 184890.000  -2994428.7325   4951309.0050   2674496.6664   6   7   0.0231   0.0514   0.0232  -0.0197   0.0315  -0.0159   0.00    0.0
2121 184920.000  -2994428.7322   4951309.0040   2674496.6663   6   7   0.0231   0.0513   0.0232  -0.0197   0.0315  -0.0159   0.00    0.0
2121 184950.000  -2994428.7321   4951309.0025   2674496.6658   6   7   0.0231   0.0512   0.0231  -0.0197   0.0315  -0.0159   0.00    0.0
2121 184980.000  -2994428.7318   4951309.0016   2674496.6650   6   7   0.0231   0.0512   0.0231  -0.0197   0.0314  -0.0159   0.00    0.0
2121 185010.000  -2994428.7315   4951309.0008   2674496.6644   6   7   0.0231   0.0511   0.0231  -0.0198   0.0314  -0.0159   0.00    0.0
2121 185040.000  -2994428.7306   4951309.0009   2674496.6641   6   7   0.0231   0.0510   0.0231  -0.0198   0.0314  -0.0159   0.00    0.0
2121 185070.000  -2994428.7293   4951309.0025   2674496.6642   6   7   0.0230   0.0509   0.0230  -0.0199   0.0313  -0.0159   0.00    0.0
2121 185100.000  -2994428.7275   4951309.0075   2674496.6656   6   7   0.0229   0.0504   0.0228  -0.0200   0.0310  -0.0160   0.00    0.0
2121 185130.000  -2994428.7272   4951309.0102   2674496.6670   6   7   0.0229   0.0503   0.0228  -0.0201   0.0309  -0.0160   0.00    0.0
2121 185160.000  -2994428.7269   4951309.0119   2674496.6679   6   7   0.0229   0.0502   0.0227  -0.0201   0.0309  -0.0160   0.00    0.0
2121 185190.000  -2994428.7268   4951309.0126   2674496.6684   6   7   0.0229   0.0501   0.0227  -0.0202   0.0309  -0.0160   0.00    0.0
2121 185220.000  -2994428.7267   4951309.0131   2674496.6691   6   7   0.0229   0.0500   0.0227  -0.0202   0.0308  -0.0160   0.00    0.0
2121 185250.000  -2994428.7269   4951309.0130   2674496.6697   6   7   0.0229   0.0500   0.0227  -0.0202   0.0308  -0.0160   0.00    0.0
2121 185280.000  -2994428.7273   4951309.0130   2674496.6701   6   7   0.0228   0.0499   0.0226  -0.0202   0.0308  -0.0160   0.00    0.0
2121 185310.000  -2994428.7273   4951309.0136   2674496.6703   6   7   0.0228   0.0498   0.0226  -0.0203   0.0307  -0.0160   0.00    0.0
2121 185340.000  -2994428.7270   4951309.0131   2674496.6697   6   7   0.0228   0.0498   0.0226  -0.0203   0.0307  -0.0160   0.00    0.0
2121 185370.000  -2994428.7267   4951309.0134   2674496.6692   6   7   0.0228   0.0496   0.0225  -0.0203   0.0306  -0.0160   0.00    0.0
2121 185400.000  -2994428.7256   4951309.0187   2674496.6716   6   7   0.0227   0.0492   0.0223  -0.0205   0.0304  -0.0160   0.00    0.0
2121 185430.000  -2994428.7255   4951309.0194   2674496.6721   6   7   0.0227   0.0491   0.0223  -0.0205   0.0303  -0.0160   0.00    0.0
2121 185460.000  -2994428.7254   4951309.0195   2674496.6724   6   7   0.0227   0.0490   0.0223  -0.0205   0.0303  -0.0160   0.00    0.0
2121 185490.000  -2994428.7250   4951309.0204   2674496.6730   6   7   0.0227   0.0489   0.0222  -0.0205   0.0302  -0.0160   0.00    0.0
2121 185520.000  -2994428.7248   4951309.0207   2674496.6734   6   7   0.0226   0.0489   0.0222  -0.0206   0.0302  -0.0160   0.00    0.0
2121 185550.000  -2994428.7249   4951309.0212   2674496.6738   6   7   0.0226   0.0488   0.0222  -0.0206   0.0302  -0.0160   0.00    0.0
2121 185580.000  -2994428.7249   4951309.0221   2674496.6741   6   7   0.0226   0.0488   0.0222  -0.0206   0.0301  -0.0160   0.00    0.0
2121 185610.000  -2994428.7248   4951309.0224   2674496.6740   6   7   0.0226   0.0487   0.0222  -0.0206   0.0301  -0.0161   0.00    0.0
2121 185640.000  -2994428.7246   4951309.0212   2674496.6732   6   7   0.0226   0.0486   0.0221  -0.0207   0.0301  -0.0161   0.00    0.0
2121 185670.000  -2994428.7242   4951309.0207   2674496.6724   6   7   0.0226   0.0485   0.0221  -0.0207   0.0300  -0.0161   0.00    0.0
2121 185700.000  -2994428.7237   4951309.0267   2674496.6752   6   7   0.0225   0.0481   0.0219  -0.0208   0.0297  -0.0160   0.00    0.0
2121 185730.000  -2994428.7238   4951309.0293   2674496.6766   6   7   0.0224   0.0480   0.0218  -0.0208   0.0297  -0.0160   0.00    0.0
2121 185760.000  -2994428.7237   4951309.0302   2674496.6770   6   7   0.0224   0.0479   0.0218  -0.0208   0.0296  -0.0160   0.00    0.0
2121 185790.000  -2994428.7237   4951309.0305   2674496.6771   6   7   0.0224   0.0478   0.0218  -0.0208   0.0296  -0.0160   0.00    0.0
2121 185820.000  -2994428.7237   4951309.0307   2674496.6771   6   7   0.0224   0.0478   0.0217  -0.0209   0.0296  -0.0160   0.00    0.0
2121 185850.000  -2994428.7237   4951309.0310   2674496.6773   6   7   0.0224   0.0477   0.0217  -0.0209   0.0295  -0.0160   0.00    0.0
